{
"type": "FeatureCollection",
"name": "deuda_2018",
"crs": { "type": "name", "properties": { "name": "urn:ogc:def:crs:OGC:1.3:CRS84" } },
"features": [
{ "type": "Feature", "properties": { "fid": 1, "POBLACION_MUNI": 2887, "SUPERFICIE": 1994.5872, "_NOMCORP": "Alegría-Dulantzi", "_IMPDEUDVIV": 1081.21, "_DEUDA": 1081214.0, "_cod_ine": "01001", "DEUDA_HAB": 374.51125736058191 }, "geometry": { "type": "Point", "coordinates": [ -2.51243731, 42.83981158 ] } },
{ "type": "Feature", "properties": { "fid": 2, "POBLACION_MUNI": 10286, "SUPERFICIE": 9635.289, "_NOMCORP": "Amurrio", "_IMPDEUDVIV": 122.08, "_DEUDA": 122081.0, "_cod_ine": "01002", "DEUDA_HAB": 11.868656426210382 }, "geometry": { "type": "Point", "coordinates": [ -3.00007326, 43.05427776 ] } },
{ "type": "Feature", "properties": { "fid": 3, "POBLACION_MUNI": 1483, "SUPERFICIE": 7327.4027, "_NOMCORP": "Aramaio", "_IMPDEUDVIV": 0.0, "_DEUDA": 0.0, "_cod_ine": "01003", "DEUDA_HAB": 0.0 }, "geometry": { "type": "Point", "coordinates": [ -2.56540037, 43.05119653 ] } },
{ "type": "Feature", "properties": { "fid": 4, "POBLACION_MUNI": 1831, "SUPERFICIE": 2728.73, "_NOMCORP": "Artziniega", "_IMPDEUDVIV": 0.0, "_DEUDA": 0.0, "_cod_ine": "01004", "DEUDA_HAB": 0.0 }, "geometry": { "type": "Point", "coordinates": [ -3.12791718, 43.120843579999985 ] } },
{ "type": "Feature", "properties": { "fid": 5, "POBLACION_MUNI": 219, "SUPERFICIE": 1294.4326, "_NOMCORP": "Armiñón", "_IMPDEUDVIV": 0.0, "_DEUDA": 0.0, "_cod_ine": "01006", "DEUDA_HAB": 0.0 }, "geometry": { "type": "Point", "coordinates": [ -2.87183475, 42.723261989999976 ] } },
{ "type": "Feature", "properties": { "fid": 6, "POBLACION_MUNI": 982, "SUPERFICIE": 5740.9889, "_NOMCORP": "Arratzua-Ubarrundia", "_IMPDEUDVIV": 0.0, "_DEUDA": 0.0, "_cod_ine": "01008", "DEUDA_HAB": 0.0 }, "geometry": { "type": "Point", "coordinates": [ -2.63878816, 42.89116171 ] } },
{ "type": "Feature", "properties": { "fid": 7, "POBLACION_MUNI": 1643, "SUPERFICIE": 6533.64, "_NOMCORP": "Asparrena", "_IMPDEUDVIV": 278.67, "_DEUDA": 278673.0, "_cod_ine": "01009", "DEUDA_HAB": 169.61229458307974 }, "geometry": { "type": "Point", "coordinates": [ -2.31670754, 42.88968768 ] } },
{ "type": "Feature", "properties": { "fid": 8, "POBLACION_MUNI": 2967, "SUPERFICIE": 14074.15, "_NOMCORP": "Ayala\/Aiara", "_IMPDEUDVIV": 0.0, "_DEUDA": 0.0, "_cod_ine": "01010", "DEUDA_HAB": 0.0 }, "geometry": { "type": "Point", "coordinates": [ -3.04306746, 43.07768283 ] } },
{ "type": "Feature", "properties": { "fid": 9, "POBLACION_MUNI": 286, "SUPERFICIE": 945.9752, "_NOMCORP": "Baños de Ebro\/Mañueta", "_IMPDEUDVIV": 46.97, "_DEUDA": 46973.0, "_cod_ine": "01011", "DEUDA_HAB": 164.24125874125875 }, "geometry": { "type": "Point", "coordinates": [ -2.67863583, 42.52925602 ] } },
{ "type": "Feature", "properties": { "fid": 10, "POBLACION_MUNI": 883, "SUPERFICIE": 9742.34, "_NOMCORP": "Barrundia", "_IMPDEUDVIV": 0.0, "_DEUDA": 0.0, "_cod_ine": "01013", "DEUDA_HAB": 0.0 }, "geometry": { "type": "Point", "coordinates": [ -2.49407452, 42.91537538 ] } },
{ "type": "Feature", "properties": { "fid": 11, "POBLACION_MUNI": 443, "SUPERFICIE": 3573.0031, "_NOMCORP": "Berantevilla", "_IMPDEUDVIV": 0.36, "_DEUDA": 364.0, "_cod_ine": "01014", "DEUDA_HAB": 0.82167042889390518 }, "geometry": { "type": "Point", "coordinates": [ -2.85971414, 42.68227191 ] } },
{ "type": "Feature", "properties": { "fid": 12, "POBLACION_MUNI": 511, "SUPERFICIE": 13044.2902, "_NOMCORP": "Bernedo", "_IMPDEUDVIV": 39.74, "_DEUDA": 39739.0, "_cod_ine": "01016", "DEUDA_HAB": 77.767123287671239 }, "geometry": { "type": "Point", "coordinates": [ -2.49825439, 42.62676989 ] } },
{ "type": "Feature", "properties": { "fid": 13, "POBLACION_MUNI": 1040, "SUPERFICIE": 8536.0875, "_NOMCORP": "Campezo\/Kanpezu", "_IMPDEUDVIV": 0.0, "_DEUDA": 0.0, "_cod_ine": "01017", "DEUDA_HAB": 0.0 }, "geometry": { "type": "Point", "coordinates": [ -2.35207693, 42.669712089999983 ] } },
{ "type": "Feature", "properties": { "fid": 14, "POBLACION_MUNI": 1753, "SUPERFICIE": 10206.9376, "_NOMCORP": "Zigoitia", "_IMPDEUDVIV": 0.0, "_DEUDA": 0.0, "_cod_ine": "01018", "DEUDA_HAB": 0.0 }, "geometry": { "type": "Point", "coordinates": [ -2.73033002, 42.96210609 ] } },
{ "type": "Feature", "properties": { "fid": 15, "POBLACION_MUNI": 181, "SUPERFICIE": 1251.599, "_NOMCORP": "Kripan", "_IMPDEUDVIV": 203.31, "_DEUDA": 203314.0, "_cod_ine": "01019", "DEUDA_HAB": 1123.2817679558011 }, "geometry": { "type": "Point", "coordinates": [ -2.51621636, 42.59082439 ] } },
{ "type": "Feature", "properties": { "fid": 16, "POBLACION_MUNI": 381, "SUPERFICIE": 8403.4771, "_NOMCORP": "Kuartango", "_IMPDEUDVIV": 0.75, "_DEUDA": 750.0, "_cod_ine": "01020", "DEUDA_HAB": 1.9685039370078741 }, "geometry": { "type": "Point", "coordinates": [ -2.88438243, 42.870064109999987 ] } },
{ "type": "Feature", "properties": { "fid": 17, "POBLACION_MUNI": 603, "SUPERFICIE": 3209.3031, "_NOMCORP": "Elburgo\/Burgelu", "_IMPDEUDVIV": 0.0, "_DEUDA": 0.0, "_cod_ine": "01021", "DEUDA_HAB": 0.0 }, "geometry": { "type": "Point", "coordinates": [ -2.545933, 42.850282 ] } },
{ "type": "Feature", "properties": { "fid": 18, "POBLACION_MUNI": 1025, "SUPERFICIE": 1632.3129, "_NOMCORP": "Elciego", "_IMPDEUDVIV": 14.41, "_DEUDA": 14408.0, "_cod_ine": "01022", "DEUDA_HAB": 14.056585365853659 }, "geometry": { "type": "Point", "coordinates": [ -2.61723872, 42.51420738 ] } },
{ "type": "Feature", "properties": { "fid": 19, "POBLACION_MUNI": 348, "SUPERFICIE": 1750.2228, "_NOMCORP": "Elvillar\/Bilar", "_IMPDEUDVIV": 125.09, "_DEUDA": 125090.0, "_cod_ine": "01023", "DEUDA_HAB": 359.45402298850576 }, "geometry": { "type": "Point", "coordinates": [ -2.54441267, 42.56842577 ] } },
{ "type": "Feature", "properties": { "fid": 20, "POBLACION_MUNI": 517, "SUPERFICIE": 4712.8628, "_NOMCORP": "Iruraiz-Gauna", "_IMPDEUDVIV": 0.0, "_DEUDA": 0.0, "_cod_ine": "01027", "DEUDA_HAB": 0.0 }, "geometry": { "type": "Point", "coordinates": [ -2.47396549, 42.831085709999989 ] } },
{ "type": "Feature", "properties": { "fid": 21, "POBLACION_MUNI": 1445, "SUPERFICIE": 3816.9756, "_NOMCORP": "Labastida\/Bastida", "_IMPDEUDVIV": 621.94, "_DEUDA": 621940.0, "_cod_ine": "01028", "DEUDA_HAB": 430.4083044982699 }, "geometry": { "type": "Point", "coordinates": [ -2.793199, 42.590217 ] } },
{ "type": "Feature", "properties": { "fid": 22, "POBLACION_MUNI": 158, "SUPERFICIE": 4562.02, "_NOMCORP": "Lagrán", "_IMPDEUDVIV": 0.0, "_DEUDA": 0.0, "_cod_ine": "01030", "DEUDA_HAB": 0.0 }, "geometry": { "type": "Point", "coordinates": [ -2.58423377, 42.62621464 ] } },
{ "type": "Feature", "properties": { "fid": 23, "POBLACION_MUNI": 1505, "SUPERFICIE": 8108.514, "_NOMCORP": "Laguardia", "_IMPDEUDVIV": 175.05, "_DEUDA": 175050.0, "_cod_ine": "01031", "DEUDA_HAB": 116.31229235880399 }, "geometry": { "type": "Point", "coordinates": [ -2.58411693, 42.55236655 ] } },
{ "type": "Feature", "properties": { "fid": 24, "POBLACION_MUNI": 667, "SUPERFICIE": 2419.6239, "_NOMCORP": "Lanciego\/Lantziego", "_IMPDEUDVIV": 237.32, "_DEUDA": 237319.0, "_cod_ine": "01032", "DEUDA_HAB": 355.80059970014992 }, "geometry": { "type": "Point", "coordinates": [ -2.51278162, 42.5624416 ] } },
{ "type": "Feature", "properties": { "fid": 25, "POBLACION_MUNI": 857, "SUPERFICIE": 598.7767, "_NOMCORP": "Lapuebla de Labarca", "_IMPDEUDVIV": 14.52, "_DEUDA": 14521.0, "_cod_ine": "01033", "DEUDA_HAB": 16.943990665110853 }, "geometry": { "type": "Point", "coordinates": [ -2.57209001, 42.494414680000013 ] } },
{ "type": "Feature", "properties": { "fid": 26, "POBLACION_MUNI": 196, "SUPERFICIE": 992.2543, "_NOMCORP": "Leza", "_IMPDEUDVIV": 77.14, "_DEUDA": 77143.0, "_cod_ine": "01034", "DEUDA_HAB": 393.58673469387753 }, "geometry": { "type": "Point", "coordinates": [ -2.63459428, 42.56469687 ] } },
{ "type": "Feature", "properties": { "fid": 27, "POBLACION_MUNI": 18205, "SUPERFICIE": 3756.0, "_NOMCORP": "Laudio\/Llodio", "_IMPDEUDVIV": 0.04, "_DEUDA": 37.0, "_cod_ine": "01036", "DEUDA_HAB": 0.0020324086789343587 }, "geometry": { "type": "Point", "coordinates": [ -2.96256495, 43.142518799999984 ] } },
{ "type": "Feature", "properties": { "fid": 28, "POBLACION_MUNI": 717, "SUPERFICIE": 12310.7942, "_NOMCORP": "Arraia-Maeztu", "_IMPDEUDVIV": 147.0, "_DEUDA": 147000.0, "_cod_ine": "01037", "DEUDA_HAB": 205.02092050209205 }, "geometry": { "type": "Point", "coordinates": [ -2.444299, 42.738527 ] } },
{ "type": "Feature", "properties": { "fid": 29, "POBLACION_MUNI": 229, "SUPERFICIE": 867.1106, "_NOMCORP": "Moreda de Álava\/Moreda Araba", "_IMPDEUDVIV": 0.0, "_DEUDA": 0.0, "_cod_ine": "01039", "DEUDA_HAB": 0.0 }, "geometry": { "type": "Point", "coordinates": [ -2.40841718, 42.52479167 ] } },
{ "type": "Feature", "properties": { "fid": 30, "POBLACION_MUNI": 209, "SUPERFICIE": 891.6398, "_NOMCORP": "Navaridas", "_IMPDEUDVIV": 3.0, "_DEUDA": 3000.0, "_cod_ine": "01041", "DEUDA_HAB": 14.354066985645932 }, "geometry": { "type": "Point", "coordinates": [ -2.62479544, 42.5450594 ] } },
{ "type": "Feature", "properties": { "fid": 31, "POBLACION_MUNI": 1162, "SUPERFICIE": 2979.23, "_NOMCORP": "Okondo", "_IMPDEUDVIV": 96.39, "_DEUDA": 96387.0, "_cod_ine": "01042", "DEUDA_HAB": 82.94922547332186 }, "geometry": { "type": "Point", "coordinates": [ -3.019026823, 43.1615513 ] } },
{ "type": "Feature", "properties": { "fid": 32, "POBLACION_MUNI": 3368, "SUPERFICIE": 4517.7474, "_NOMCORP": "Oyón-Oion", "_IMPDEUDVIV": 100.0, "_DEUDA": 100000.0, "_cod_ine": "01043", "DEUDA_HAB": 29.691211401425178 }, "geometry": { "type": "Point", "coordinates": [ -2.436788, 42.506067 ] } },
{ "type": "Feature", "properties": { "fid": 33, "POBLACION_MUNI": 257, "SUPERFICIE": 6217.54, "_NOMCORP": "Peñacerrada-Urizaharra", "_IMPDEUDVIV": 0.0, "_DEUDA": 0.0, "_cod_ine": "01044", "DEUDA_HAB": 0.0 }, "geometry": { "type": "Point", "coordinates": [ -2.71402821, 42.64417512 ] } },
{ "type": "Feature", "properties": { "fid": 34, "POBLACION_MUNI": 780, "SUPERFICIE": 11978.2131, "_NOMCORP": "Erriberagoitia\/Ribera Alta", "_IMPDEUDVIV": 0.25, "_DEUDA": 252.0, "_cod_ine": "01046", "DEUDA_HAB": 0.32307692307692309 }, "geometry": { "type": "Point", "coordinates": [ -2.91080642, 42.800746819999986 ] } },
{ "type": "Feature", "properties": { "fid": 35, "POBLACION_MUNI": 1374, "SUPERFICIE": 2536.0438, "_NOMCORP": "Ribera Baja\/Erribera Beitia", "_IMPDEUDVIV": 37.5, "_DEUDA": 37500.0, "_cod_ine": "01047", "DEUDA_HAB": 27.292576419213972 }, "geometry": { "type": "Point", "coordinates": [ -2.91704002, 42.71339792 ] } },
{ "type": "Feature", "properties": { "fid": 36, "POBLACION_MUNI": 151, "SUPERFICIE": 2192.3285, "_NOMCORP": "Añana", "_IMPDEUDVIV": 98.66, "_DEUDA": 98655.0, "_cod_ine": "01049", "DEUDA_HAB": 653.34437086092714 }, "geometry": { "type": "Point", "coordinates": [ -2.98601634, 42.8012318 ] } },
{ "type": "Feature", "properties": { "fid": 37, "POBLACION_MUNI": 5018, "SUPERFICIE": 3776.9884, "_NOMCORP": "Salvatierra\/Agurain", "_IMPDEUDVIV": 3160.69, "_DEUDA": 3160689.0, "_cod_ine": "01051", "DEUDA_HAB": 629.87026703866081 }, "geometry": { "type": "Point", "coordinates": [ -2.389753, 42.850452 ] } },
{ "type": "Feature", "properties": { "fid": 38, "POBLACION_MUNI": 319, "SUPERFICIE": 1063.761, "_NOMCORP": "Samaniego", "_IMPDEUDVIV": 88.63, "_DEUDA": 88625.0, "_cod_ine": "01052", "DEUDA_HAB": 277.82131661442008 }, "geometry": { "type": "Point", "coordinates": [ -2.67904862, 42.56735197 ] } },
{ "type": "Feature", "properties": { "fid": 39, "POBLACION_MUNI": 709, "SUPERFICIE": 8540.58, "_NOMCORP": "San Millán\/Donemiliaga", "_IMPDEUDVIV": 0.0, "_DEUDA": 0.0, "_cod_ine": "01053", "DEUDA_HAB": 0.0 }, "geometry": { "type": "Point", "coordinates": [ -2.37748902, 42.87382571 ] } },
{ "type": "Feature", "properties": { "fid": 40, "POBLACION_MUNI": 1336, "SUPERFICIE": 6084.8426, "_NOMCORP": "Urkabustaiz", "_IMPDEUDVIV": 0.0, "_DEUDA": 0.0, "_cod_ine": "01054", "DEUDA_HAB": 0.0 }, "geometry": { "type": "Point", "coordinates": [ -2.90661046, 42.95304046 ] } },
{ "type": "Feature", "properties": { "fid": 41, "POBLACION_MUNI": 991, "SUPERFICIE": 23827.336, "_NOMCORP": "Valdegovía\/Gaubea", "_IMPDEUDVIV": 729.55, "_DEUDA": 729552.0, "_cod_ine": "01055", "DEUDA_HAB": 736.1775983854692 }, "geometry": { "type": "Point", "coordinates": [ -3.09884417, 42.84756896 ] } },
{ "type": "Feature", "properties": { "fid": 42, "POBLACION_MUNI": 229, "SUPERFICIE": 3912.1857, "_NOMCORP": "Harana\/Valle de Arana", "_IMPDEUDVIV": 45.1, "_DEUDA": 45103.0, "_cod_ine": "01056", "DEUDA_HAB": 196.95633187772927 }, "geometry": { "type": "Point", "coordinates": [ -2.33104687, 42.752891939999984 ] } },
{ "type": "Feature", "properties": { "fid": 43, "POBLACION_MUNI": 299, "SUPERFICIE": 847.9289, "_NOMCORP": "Villabuena de Álava\/Eskuernaga", "_IMPDEUDVIV": 29.98, "_DEUDA": 29983.0, "_cod_ine": "01057", "DEUDA_HAB": 100.27759197324414 }, "geometry": { "type": "Point", "coordinates": [ -2.66452938, 42.54857804 ] } },
{ "type": "Feature", "properties": { "fid": 44, "POBLACION_MUNI": 1869, "SUPERFICIE": 4585.3184, "_NOMCORP": "Legutio", "_IMPDEUDVIV": 0.0, "_DEUDA": 0.0, "_cod_ine": "01058", "DEUDA_HAB": 0.0 }, "geometry": { "type": "Point", "coordinates": [ -2.64255929, 42.979874399999986 ] } },
{ "type": "Feature", "properties": { "fid": 45, "POBLACION_MUNI": 249176, "SUPERFICIE": 27681.2008, "_NOMCORP": "Vitoria-Gasteiz", "_IMPDEUDVIV": 138490.77, "_DEUDA": 138490765.36000001, "_cod_ine": "01059", "DEUDA_HAB": 555.79496163354418 }, "geometry": { "type": "Point", "coordinates": [ -2.67275685, 42.85058789 ] } },
{ "type": "Feature", "properties": { "fid": 46, "POBLACION_MUNI": 269, "SUPERFICIE": 1880.2483, "_NOMCORP": "Yécora\/Iekora", "_IMPDEUDVIV": 18.0, "_DEUDA": 18000.0, "_cod_ine": "01060", "DEUDA_HAB": 66.914498141263934 }, "geometry": { "type": "Point", "coordinates": [ -2.4700849, 42.56923117 ] } },
{ "type": "Feature", "properties": { "fid": 47, "POBLACION_MUNI": 186, "SUPERFICIE": 1187.86, "_NOMCORP": "Zalduondo", "_IMPDEUDVIV": 0.0, "_DEUDA": 0.0, "_cod_ine": "01061", "DEUDA_HAB": 0.0 }, "geometry": { "type": "Point", "coordinates": [ -2.34650825, 42.88580971 ] } },
{ "type": "Feature", "properties": { "fid": 48, "POBLACION_MUNI": 400, "SUPERFICIE": 3950.6249, "_NOMCORP": "Zambrana", "_IMPDEUDVIV": 138.28, "_DEUDA": 138277.0, "_cod_ine": "01062", "DEUDA_HAB": 345.6925 }, "geometry": { "type": "Point", "coordinates": [ -2.87806502, 42.66112968 ] } },
{ "type": "Feature", "properties": { "fid": 49, "POBLACION_MUNI": 2313, "SUPERFICIE": 12248.6671, "_NOMCORP": "Zuia", "_IMPDEUDVIV": 0.0, "_DEUDA": 0.0, "_cod_ine": "01063", "DEUDA_HAB": 0.0 }, "geometry": { "type": "Point", "coordinates": [ -2.81862854, 42.95597763 ] } },
{ "type": "Feature", "properties": { "fid": 50, "POBLACION_MUNI": 3333, "SUPERFICIE": 5325.0072, "_NOMCORP": "Iruña Oka\/Iruña de Oca", "_IMPDEUDVIV": 0.95, "_DEUDA": 953.0, "_cod_ine": "01901", "DEUDA_HAB": 0.2859285928592859 }, "geometry": { "type": "Point", "coordinates": [ -2.8147543, 42.81819126 ] } },
{ "type": "Feature", "properties": { "fid": 51, "POBLACION_MUNI": 872, "SUPERFICIE": 6748.9609, "_NOMCORP": "Lantarón", "_IMPDEUDVIV": 0.0, "_DEUDA": 0.0, "_cod_ine": "01902", "DEUDA_HAB": 0.0 }, "geometry": { "type": "Point", "coordinates": [ -2.96649719, 42.71657557 ] } },
{ "type": "Feature", "properties": { "fid": 52, "POBLACION_MUNI": 757, "SUPERFICIE": 3076.9225, "_NOMCORP": "Abengibre", "_IMPDEUDVIV": 0.0, "_DEUDA": 0.0, "_cod_ine": "02001", "DEUDA_HAB": 0.0 }, "geometry": { "type": "Point", "coordinates": [ -1.54384487, 39.2100078 ] } },
{ "type": "Feature", "properties": { "fid": 53, "POBLACION_MUNI": 529, "SUPERFICIE": 6385.5135, "_NOMCORP": "Alatoz", "_IMPDEUDVIV": 261.73, "_DEUDA": 261731.21, "_cod_ine": "02002", "DEUDA_HAB": 494.76599243856333 }, "geometry": { "type": "Point", "coordinates": [ -1.36097604, 39.09494843 ] } },
{ "type": "Feature", "properties": { "fid": 54, "POBLACION_MUNI": 173050, "SUPERFICIE": 112698.96, "_NOMCORP": "Albacete", "_IMPDEUDVIV": 62404.4, "_DEUDA": 62404401.13, "_cod_ine": "02003", "DEUDA_HAB": 360.6148577289801 }, "geometry": { "type": "Point", "coordinates": [ -1.85574745, 38.99588053 ] } },
{ "type": "Feature", "properties": { "fid": 55, "POBLACION_MUNI": 693, "SUPERFICIE": 3052.2595, "_NOMCORP": "Albatana", "_IMPDEUDVIV": 121.01, "_DEUDA": 121008.0, "_cod_ine": "02004", "DEUDA_HAB": 174.61471861471861 }, "geometry": { "type": "Point", "coordinates": [ -1.52275248, 38.5708754 ] } },
{ "type": "Feature", "properties": { "fid": 56, "POBLACION_MUNI": 650, "SUPERFICIE": 7205.1825, "_NOMCORP": "Alborea", "_IMPDEUDVIV": 0.0, "_DEUDA": 0.0, "_cod_ine": "02005", "DEUDA_HAB": 0.0 }, "geometry": { "type": "Point", "coordinates": [ -1.39670449, 39.27835442 ] } },
{ "type": "Feature", "properties": { "fid": 57, "POBLACION_MUNI": 655, "SUPERFICIE": 9958.7, "_NOMCORP": "Alcadozo", "_IMPDEUDVIV": 122.27, "_DEUDA": 122265.0, "_cod_ine": "02006", "DEUDA_HAB": 186.66412213740458 }, "geometry": { "type": "Point", "coordinates": [ -1.9802275, 38.6489758 ] } },
{ "type": "Feature", "properties": { "fid": 58, "POBLACION_MUNI": 1199, "SUPERFICIE": 14682.4446, "_NOMCORP": "Alcalá del Júcar", "_IMPDEUDVIV": 320.4, "_DEUDA": 320403.0, "_cod_ine": "02007", "DEUDA_HAB": 267.22518765638034 }, "geometry": { "type": "Point", "coordinates": [ -1.42932697, 39.193201800000011 ] } },
{ "type": "Feature", "properties": { "fid": 59, "POBLACION_MUNI": 1405, "SUPERFICIE": 37053.3125, "_NOMCORP": "Alcaraz", "_IMPDEUDVIV": 0.0, "_DEUDA": 0.0, "_cod_ine": "02008", "DEUDA_HAB": 0.0 }, "geometry": { "type": "Point", "coordinates": [ -2.49034957, 38.664251040000011 ] } },
{ "type": "Feature", "properties": { "fid": 60, "POBLACION_MUNI": 24537, "SUPERFICIE": 53191.1048, "_NOMCORP": "Almansa", "_IMPDEUDVIV": 9323.92, "_DEUDA": 9323918.5, "_cod_ine": "02009", "DEUDA_HAB": 379.99423319884255 }, "geometry": { "type": "Point", "coordinates": [ -1.09414681, 38.86968811 ] } },
{ "type": "Feature", "properties": { "fid": 61, "POBLACION_MUNI": 2275, "SUPERFICIE": 17847.2745, "_NOMCORP": "Alpera", "_IMPDEUDVIV": 0.0, "_DEUDA": 0.0, "_cod_ine": "02010", "DEUDA_HAB": 0.0 }, "geometry": { "type": "Point", "coordinates": [ -1.23080245, 38.95969094 ] } },
{ "type": "Feature", "properties": { "fid": 62, "POBLACION_MUNI": 638, "SUPERFICIE": 14658.96, "_NOMCORP": "Ayna", "_IMPDEUDVIV": 241.46, "_DEUDA": 241456.44, "_cod_ine": "02011", "DEUDA_HAB": 378.45836990595609 }, "geometry": { "type": "Point", "coordinates": [ -2.07053831, 38.55217746 ] } },
{ "type": "Feature", "properties": { "fid": 63, "POBLACION_MUNI": 2360, "SUPERFICIE": 6515.3733, "_NOMCORP": "Balazote", "_IMPDEUDVIV": 197.58, "_DEUDA": 197579.0, "_cod_ine": "02012", "DEUDA_HAB": 83.719915254237293 }, "geometry": { "type": "Point", "coordinates": [ -2.15096732, 38.88396156 ] } },
{ "type": "Feature", "properties": { "fid": 64, "POBLACION_MUNI": 150, "SUPERFICIE": 7634.9273, "_NOMCORP": "Balsa de Ves", "_IMPDEUDVIV": 0.0, "_DEUDA": 0.0, "_cod_ine": "02013", "DEUDA_HAB": 0.0 }, "geometry": { "type": "Point", "coordinates": [ -1.19650012, 39.26461253 ] } },
{ "type": "Feature", "properties": { "fid": 65, "POBLACION_MUNI": 409, "SUPERFICIE": 13869.3693, "_NOMCORP": "Ballestero (El)", "_IMPDEUDVIV": 60.0, "_DEUDA": 60000.0, "_cod_ine": "02014", "DEUDA_HAB": 146.69926650366747 }, "geometry": { "type": "Point", "coordinates": [ -2.45508633, 38.84252196 ] } },
{ "type": "Feature", "properties": { "fid": 66, "POBLACION_MUNI": 1864, "SUPERFICIE": 18983.33, "_NOMCORP": "Barrax", "_IMPDEUDVIV": 1328.87, "_DEUDA": 1328868.78, "_cod_ine": "02015", "DEUDA_HAB": 712.91243562231762 }, "geometry": { "type": "Point", "coordinates": [ -2.20045637, 39.0456106 ] } },
{ "type": "Feature", "properties": { "fid": 67, "POBLACION_MUNI": 610, "SUPERFICIE": 9073.437, "_NOMCORP": "Bienservida", "_IMPDEUDVIV": 505.64, "_DEUDA": 505639.66, "_cod_ine": "02016", "DEUDA_HAB": 828.91747540983602 }, "geometry": { "type": "Point", "coordinates": [ -2.61184243, 38.516020969999985 ] } },
{ "type": "Feature", "properties": { "fid": 68, "POBLACION_MUNI": 873, "SUPERFICIE": 16601.4619, "_NOMCORP": "Bogarra", "_IMPDEUDVIV": 130.59, "_DEUDA": 130594.0, "_cod_ine": "02017", "DEUDA_HAB": 149.59221076746849 }, "geometry": { "type": "Point", "coordinates": [ -2.21253636, 38.58025427 ] } },
{ "type": "Feature", "properties": { "fid": 69, "POBLACION_MUNI": 1057, "SUPERFICIE": 12505.526, "_NOMCORP": "Bonete", "_IMPDEUDVIV": 574.71, "_DEUDA": 574714.0, "_cod_ine": "02018", "DEUDA_HAB": 543.72185430463571 }, "geometry": { "type": "Point", "coordinates": [ -1.34830324, 38.86950589 ] } },
{ "type": "Feature", "properties": { "fid": 70, "POBLACION_MUNI": 2837, "SUPERFICIE": 50266.0, "_NOMCORP": "Bonillo (El)", "_IMPDEUDVIV": 0.0, "_DEUDA": 0.0, "_cod_ine": "02019", "DEUDA_HAB": 0.0 }, "geometry": { "type": "Point", "coordinates": [ -2.54023691, 38.95012362 ] } },
{ "type": "Feature", "properties": { "fid": 71, "POBLACION_MUNI": 508, "SUPERFICIE": 7536.3731, "_NOMCORP": "Carcelén", "_IMPDEUDVIV": 300.81, "_DEUDA": 300809.86, "_cod_ine": "02020", "DEUDA_HAB": 592.14539370078739 }, "geometry": { "type": "Point", "coordinates": [ -1.30876708, 39.10231176 ] } },
{ "type": "Feature", "properties": { "fid": 72, "POBLACION_MUNI": 1275, "SUPERFICIE": 8898.2779, "_NOMCORP": "Casas de Juan Núñez", "_IMPDEUDVIV": 1137.83, "_DEUDA": 1137826.71, "_cod_ine": "02021", "DEUDA_HAB": 892.41310588235297 }, "geometry": { "type": "Point", "coordinates": [ -1.55799035, 39.10160749 ] } },
{ "type": "Feature", "properties": { "fid": 73, "POBLACION_MUNI": 344, "SUPERFICIE": 11231.6773, "_NOMCORP": "Casas de Lázaro", "_IMPDEUDVIV": 189.06, "_DEUDA": 189058.94, "_cod_ine": "02022", "DEUDA_HAB": 549.58994186046516 }, "geometry": { "type": "Point", "coordinates": [ -2.23922378, 38.7705758 ] } },
{ "type": "Feature", "properties": { "fid": 74, "POBLACION_MUNI": 588, "SUPERFICIE": 12509.4606, "_NOMCORP": "Casas de Ves", "_IMPDEUDVIV": 28.31, "_DEUDA": 28308.0, "_cod_ine": "02023", "DEUDA_HAB": 48.142857142857146 }, "geometry": { "type": "Point", "coordinates": [ -1.33454992, 39.25946122 ] } },
{ "type": "Feature", "properties": { "fid": 75, "POBLACION_MUNI": 4522, "SUPERFICIE": 10321.9713, "_NOMCORP": "Casas-Ibáñez", "_IMPDEUDVIV": 0.0, "_DEUDA": 0.0, "_cod_ine": "02024", "DEUDA_HAB": 0.0 }, "geometry": { "type": "Point", "coordinates": [ -1.47129143, 39.28701686 ] } },
{ "type": "Feature", "properties": { "fid": 76, "POBLACION_MUNI": 10003, "SUPERFICIE": 14160.7632, "_NOMCORP": "Caudete", "_IMPDEUDVIV": 3430.94, "_DEUDA": 3430935.32, "_cod_ine": "02025", "DEUDA_HAB": 342.99063480955709 }, "geometry": { "type": "Point", "coordinates": [ -0.9886912, 38.70573009 ] } },
{ "type": "Feature", "properties": { "fid": 77, "POBLACION_MUNI": 1182, "SUPERFICIE": 6326.0153, "_NOMCORP": "Cenizate", "_IMPDEUDVIV": 171.77, "_DEUDA": 171772.0, "_cod_ine": "02026", "DEUDA_HAB": 145.32318104906938 }, "geometry": { "type": "Point", "coordinates": [ -1.66113349, 39.30332101 ] } },
{ "type": "Feature", "properties": { "fid": 78, "POBLACION_MUNI": 330, "SUPERFICIE": 9475.5686, "_NOMCORP": "Corral-Rubio", "_IMPDEUDVIV": 266.67, "_DEUDA": 266666.0, "_cod_ine": "02027", "DEUDA_HAB": 808.07878787878792 }, "geometry": { "type": "Point", "coordinates": [ -1.4608525, 38.835000719999989 ] } },
{ "type": "Feature", "properties": { "fid": 79, "POBLACION_MUNI": 128, "SUPERFICIE": 1446.9288, "_NOMCORP": "Cotillas", "_IMPDEUDVIV": 710.73, "_DEUDA": 710725.82, "_cod_ine": "02028", "DEUDA_HAB": 5552.5454687499996 }, "geometry": { "type": "Point", "coordinates": [ -2.50574545, 38.43135915 ] } },
{ "type": "Feature", "properties": { "fid": 80, "POBLACION_MUNI": 4182, "SUPERFICIE": 67927.33, "_NOMCORP": "Chinchilla de Monte-Aragón", "_IMPDEUDVIV": 523.38, "_DEUDA": 523381.0, "_cod_ine": "02029", "DEUDA_HAB": 125.15088474414156 }, "geometry": { "type": "Point", "coordinates": [ -1.72602643, 38.9210968 ] } },
{ "type": "Feature", "properties": { "fid": 81, "POBLACION_MUNI": 3624, "SUPERFICIE": 23949.4125, "_NOMCORP": "Elche de la Sierra", "_IMPDEUDVIV": 357.1, "_DEUDA": 357098.0, "_cod_ine": "02030", "DEUDA_HAB": 98.53697571743929 }, "geometry": { "type": "Point", "coordinates": [ -2.04781376, 38.44790893 ] } },
{ "type": "Feature", "properties": { "fid": 82, "POBLACION_MUNI": 674, "SUPERFICIE": 12614.1544, "_NOMCORP": "Férez", "_IMPDEUDVIV": 760.7, "_DEUDA": 760701.08, "_cod_ine": "02031", "DEUDA_HAB": 1128.6366172106825 }, "geometry": { "type": "Point", "coordinates": [ -2.00953934, 38.35567013 ] } },
{ "type": "Feature", "properties": { "fid": 83, "POBLACION_MUNI": 297, "SUPERFICIE": 2395.6454, "_NOMCORP": "Fuensanta", "_IMPDEUDVIV": 16.15, "_DEUDA": 16154.0, "_cod_ine": "02032", "DEUDA_HAB": 54.390572390572387 }, "geometry": { "type": "Point", "coordinates": [ -2.06725219, 39.24466001 ] } },
{ "type": "Feature", "properties": { "fid": 84, "POBLACION_MUNI": 2489, "SUPERFICIE": 13339.011, "_NOMCORP": "Fuente-Álamo", "_IMPDEUDVIV": 120.98, "_DEUDA": 120975.0, "_cod_ine": "02033", "DEUDA_HAB": 48.603856970670954 }, "geometry": { "type": "Point", "coordinates": [ -1.43170411, 38.69314229 ] } },
{ "type": "Feature", "properties": { "fid": 85, "POBLACION_MUNI": 1816, "SUPERFICIE": 10829.379, "_NOMCORP": "Fuentealbilla", "_IMPDEUDVIV": 507.36, "_DEUDA": 507357.0, "_cod_ine": "02034", "DEUDA_HAB": 279.38160792951544 }, "geometry": { "type": "Point", "coordinates": [ -1.54879364, 39.26773579000001 ] } },
{ "type": "Feature", "properties": { "fid": 86, "POBLACION_MUNI": 2448, "SUPERFICIE": 13676.47, "_NOMCORP": "Gineta (La)", "_IMPDEUDVIV": 1450.93, "_DEUDA": 1450928.14, "_cod_ine": "02035", "DEUDA_HAB": 592.69940359477118 }, "geometry": { "type": "Point", "coordinates": [ -1.99784496, 39.11387916 ] } },
{ "type": "Feature", "properties": { "fid": 87, "POBLACION_MUNI": 110, "SUPERFICIE": 2817.6676, "_NOMCORP": "Golosalvo", "_IMPDEUDVIV": 0.0, "_DEUDA": 0.0, "_cod_ine": "02036", "DEUDA_HAB": 0.0 }, "geometry": { "type": "Point", "coordinates": [ -1.63626863, 39.23996013 ] } },
{ "type": "Feature", "properties": { "fid": 88, "POBLACION_MUNI": 30268, "SUPERFICIE": 78118.8703, "_NOMCORP": "Hellín", "_IMPDEUDVIV": 15043.75, "_DEUDA": 15043752.8, "_cod_ine": "02037", "DEUDA_HAB": 497.01839566538922 }, "geometry": { "type": "Point", "coordinates": [ -1.70344921, 38.512189529999986 ] } },
{ "type": "Feature", "properties": { "fid": 89, "POBLACION_MUNI": 349, "SUPERFICIE": 6342.58, "_NOMCORP": "Herrera (La)", "_IMPDEUDVIV": 0.0, "_DEUDA": 0.0, "_cod_ine": "02038", "DEUDA_HAB": 0.0 }, "geometry": { "type": "Point", "coordinates": [ -2.12637236, 38.9621774 ] } },
{ "type": "Feature", "properties": { "fid": 90, "POBLACION_MUNI": 1184, "SUPERFICIE": 20545.4904, "_NOMCORP": "Higueruela", "_IMPDEUDVIV": 0.0, "_DEUDA": 0.0, "_cod_ine": "02039", "DEUDA_HAB": 0.0 }, "geometry": { "type": "Point", "coordinates": [ -1.44535609, 38.96455026 ] } },
{ "type": "Feature", "properties": { "fid": 91, "POBLACION_MUNI": 621, "SUPERFICIE": 11457.4972, "_NOMCORP": "Hoya-Gonzalo", "_IMPDEUDVIV": 0.0, "_DEUDA": 0.0, "_cod_ine": "02040", "DEUDA_HAB": 0.0 }, "geometry": { "type": "Point", "coordinates": [ -1.55687053, 38.95787352 ] } },
{ "type": "Feature", "properties": { "fid": 92, "POBLACION_MUNI": 360, "SUPERFICIE": 6797.0751, "_NOMCORP": "Jorquera", "_IMPDEUDVIV": 598.18, "_DEUDA": 598180.59, "_cod_ine": "02041", "DEUDA_HAB": 1661.61275 }, "geometry": { "type": "Point", "coordinates": [ -1.52061391, 39.17457441 ] } },
{ "type": "Feature", "properties": { "fid": 93, "POBLACION_MUNI": 928, "SUPERFICIE": 26356.0627, "_NOMCORP": "Letur", "_IMPDEUDVIV": 1399.09, "_DEUDA": 1399094.43, "_cod_ine": "02042", "DEUDA_HAB": 1507.644859913793 }, "geometry": { "type": "Point", "coordinates": [ -2.10096881, 38.36632081 ] } },
{ "type": "Feature", "properties": { "fid": 94, "POBLACION_MUNI": 1398, "SUPERFICIE": 36090.3503, "_NOMCORP": "Lezuza", "_IMPDEUDVIV": 261.35, "_DEUDA": 261346.0, "_cod_ine": "02043", "DEUDA_HAB": 186.94277539341917 }, "geometry": { "type": "Point", "coordinates": [ -2.35387427, 38.94878996 ] } },
{ "type": "Feature", "properties": { "fid": 95, "POBLACION_MUNI": 1200, "SUPERFICIE": 31178.91, "_NOMCORP": "Liétor", "_IMPDEUDVIV": 41.95, "_DEUDA": 41948.0, "_cod_ine": "02044", "DEUDA_HAB": 34.956666666666663 }, "geometry": { "type": "Point", "coordinates": [ -1.95479319, 38.54083745 ] } },
{ "type": "Feature", "properties": { "fid": 96, "POBLACION_MUNI": 4665, "SUPERFICIE": 7334.55, "_NOMCORP": "Madrigueras", "_IMPDEUDVIV": 99.62, "_DEUDA": 99618.0, "_cod_ine": "02045", "DEUDA_HAB": 21.354340836012863 }, "geometry": { "type": "Point", "coordinates": [ -1.7997012, 39.23680339 ] } },
{ "type": "Feature", "properties": { "fid": 97, "POBLACION_MUNI": 1359, "SUPERFICIE": 10814.91, "_NOMCORP": "Mahora", "_IMPDEUDVIV": 321.97, "_DEUDA": 321971.54, "_cod_ine": "02046", "DEUDA_HAB": 236.91798381162619 }, "geometry": { "type": "Point", "coordinates": [ -1.72481837, 39.21303088 ] } },
{ "type": "Feature", "properties": { "fid": 98, "POBLACION_MUNI": 113, "SUPERFICIE": 10387.0257, "_NOMCORP": "Masegoso", "_IMPDEUDVIV": 0.0, "_DEUDA": 0.0, "_cod_ine": "02047", "DEUDA_HAB": 0.0 }, "geometry": { "type": "Point", "coordinates": [ -2.31511768, 38.71877813 ] } },
{ "type": "Feature", "properties": { "fid": 99, "POBLACION_MUNI": 1537, "SUPERFICIE": 6983.1234, "_NOMCORP": "Minaya", "_IMPDEUDVIV": 957.31, "_DEUDA": 957309.99, "_cod_ine": "02048", "DEUDA_HAB": 622.84319453480805 }, "geometry": { "type": "Point", "coordinates": [ -2.31961973, 39.27118701 ] } },
{ "type": "Feature", "properties": { "fid": 100, "POBLACION_MUNI": 840, "SUPERFICIE": 14358.8298, "_NOMCORP": "Molinicos", "_IMPDEUDVIV": 605.83, "_DEUDA": 605834.2, "_cod_ine": "02049", "DEUDA_HAB": 721.23119047619048 }, "geometry": { "type": "Point", "coordinates": [ -2.23898151, 38.46778179 ] } },
{ "type": "Feature", "properties": { "fid": 101, "POBLACION_MUNI": 96, "SUPERFICIE": 2477.9315, "_NOMCORP": "Montalvos", "_IMPDEUDVIV": 19.48, "_DEUDA": 19481.0, "_cod_ine": "02050", "DEUDA_HAB": 202.92708333333334 }, "geometry": { "type": "Point", "coordinates": [ -2.02769341, 39.16721439 ] } },
{ "type": "Feature", "properties": { "fid": 102, "POBLACION_MUNI": 2042, "SUPERFICIE": 17779.3485, "_NOMCORP": "Montealegre del Castillo", "_IMPDEUDVIV": 0.04, "_DEUDA": 36.0, "_cod_ine": "02051", "DEUDA_HAB": 0.01762977473065622 }, "geometry": { "type": "Point", "coordinates": [ -1.32487672, 38.78717469 ] } },
{ "type": "Feature", "properties": { "fid": 103, "POBLACION_MUNI": 548, "SUPERFICIE": 2382.44, "_NOMCORP": "Motilleja", "_IMPDEUDVIV": 497.15, "_DEUDA": 497152.92, "_cod_ine": "02052", "DEUDA_HAB": 907.21335766423351 }, "geometry": { "type": "Point", "coordinates": [ -1.79025762, 39.17948885 ] } },
{ "type": "Feature", "properties": { "fid": 104, "POBLACION_MUNI": 3513, "SUPERFICIE": 22942.7623, "_NOMCORP": "Munera", "_IMPDEUDVIV": 1415.16, "_DEUDA": 1415162.0, "_cod_ine": "02053", "DEUDA_HAB": 402.83575291773411 }, "geometry": { "type": "Point", "coordinates": [ -2.4830388, 39.03954575 ] } },
{ "type": "Feature", "properties": { "fid": 105, "POBLACION_MUNI": 518, "SUPERFICIE": 4225.9722, "_NOMCORP": "Navas de Jorquera", "_IMPDEUDVIV": 83.36, "_DEUDA": 83363.0, "_cod_ine": "02054", "DEUDA_HAB": 160.93243243243242 }, "geometry": { "type": "Point", "coordinates": [ -1.7189485, 39.28099513 ] } },
{ "type": "Feature", "properties": { "fid": 106, "POBLACION_MUNI": 1222, "SUPERFICIE": 43578.1242, "_NOMCORP": "Nerpio", "_IMPDEUDVIV": 703.87, "_DEUDA": 703866.15, "_cod_ine": "02055", "DEUDA_HAB": 575.99521276595749 }, "geometry": { "type": "Point", "coordinates": [ -2.30224029, 38.148240429999987 ] } },
{ "type": "Feature", "properties": { "fid": 107, "POBLACION_MUNI": 2028, "SUPERFICIE": 5438.1594, "_NOMCORP": "Ontur", "_IMPDEUDVIV": 1444.74, "_DEUDA": 1444742.12, "_cod_ine": "02056", "DEUDA_HAB": 712.39749506903354 }, "geometry": { "type": "Point", "coordinates": [ -1.49888166, 38.61472661 ] } },
{ "type": "Feature", "properties": { "fid": 108, "POBLACION_MUNI": 2352, "SUPERFICIE": 24350.2479, "_NOMCORP": "Ossa de Montiel", "_IMPDEUDVIV": 905.66, "_DEUDA": 905656.91, "_cod_ine": "02057", "DEUDA_HAB": 385.0582100340136 }, "geometry": { "type": "Point", "coordinates": [ -2.74272664, 38.96201035 ] } },
{ "type": "Feature", "properties": { "fid": 109, "POBLACION_MUNI": 360, "SUPERFICIE": 11233.8382, "_NOMCORP": "Paterna del Madera", "_IMPDEUDVIV": 510.9, "_DEUDA": 510902.12, "_cod_ine": "02058", "DEUDA_HAB": 1419.1725555555556 }, "geometry": { "type": "Point", "coordinates": [ -2.34555766, 38.59729435 ] } },
{ "type": "Feature", "properties": { "fid": 110, "POBLACION_MUNI": 331, "SUPERFICIE": 18925.8047, "_NOMCORP": "Peñascosa", "_IMPDEUDVIV": 0.0, "_DEUDA": 0.0, "_cod_ine": "02059", "DEUDA_HAB": 0.0 }, "geometry": { "type": "Point", "coordinates": [ -2.41040499, 38.671535359999986 ] } },
{ "type": "Feature", "properties": { "fid": 111, "POBLACION_MUNI": 1420, "SUPERFICIE": 15876.06, "_NOMCORP": "Peñas de San Pedro", "_IMPDEUDVIV": 0.0, "_DEUDA": 0.0, "_cod_ine": "02060", "DEUDA_HAB": 0.0 }, "geometry": { "type": "Point", "coordinates": [ -2.00212787, 38.72688881 ] } },
{ "type": "Feature", "properties": { "fid": 112, "POBLACION_MUNI": 696, "SUPERFICIE": 7460.7346, "_NOMCORP": "Pétrola", "_IMPDEUDVIV": 0.0, "_DEUDA": 0.0, "_cod_ine": "02061", "DEUDA_HAB": 0.0 }, "geometry": { "type": "Point", "coordinates": [ -1.55549981, 38.82629814 ] } },
{ "type": "Feature", "properties": { "fid": 113, "POBLACION_MUNI": 446, "SUPERFICIE": 4942.7325, "_NOMCORP": "Povedilla", "_IMPDEUDVIV": 57.46, "_DEUDA": 57460.0, "_cod_ine": "02062", "DEUDA_HAB": 128.8340807174888 }, "geometry": { "type": "Point", "coordinates": [ -2.60393627, 38.70163971 ] } },
{ "type": "Feature", "properties": { "fid": 114, "POBLACION_MUNI": 1635, "SUPERFICIE": 13648.62, "_NOMCORP": "Pozohondo", "_IMPDEUDVIV": 0.0, "_DEUDA": 0.0, "_cod_ine": "02063", "DEUDA_HAB": 0.0 }, "geometry": { "type": "Point", "coordinates": [ -1.91133356, 38.721122 ] } },
{ "type": "Feature", "properties": { "fid": 115, "POBLACION_MUNI": 401, "SUPERFICIE": 8095.5291, "_NOMCORP": "Pozo-Lorente", "_IMPDEUDVIV": 109.19, "_DEUDA": 109187.0, "_cod_ine": "02064", "DEUDA_HAB": 272.28678304239401 }, "geometry": { "type": "Point", "coordinates": [ -1.50647855, 39.07663024 ] } },
{ "type": "Feature", "properties": { "fid": 116, "POBLACION_MUNI": 489, "SUPERFICIE": 13397.79, "_NOMCORP": "Pozuelo", "_IMPDEUDVIV": 24.65, "_DEUDA": 24649.0, "_cod_ine": "02065", "DEUDA_HAB": 50.40695296523517 }, "geometry": { "type": "Point", "coordinates": [ -2.10117384, 38.80969625 ] } },
{ "type": "Feature", "properties": { "fid": 117, "POBLACION_MUNI": 254, "SUPERFICIE": 2973.9107, "_NOMCORP": "Recueja (La)", "_IMPDEUDVIV": 41.61, "_DEUDA": 41610.2, "_cod_ine": "02066", "DEUDA_HAB": 163.81968503937006 }, "geometry": { "type": "Point", "coordinates": [ -1.48988779, 39.17688319 ] } },
{ "type": "Feature", "properties": { "fid": 118, "POBLACION_MUNI": 1357, "SUPERFICIE": 8092.005, "_NOMCORP": "Riópar", "_IMPDEUDVIV": 1872.59, "_DEUDA": 1872587.37, "_cod_ine": "02067", "DEUDA_HAB": 1379.9464775239501 }, "geometry": { "type": "Point", "coordinates": [ -2.41839311, 38.49980990000001 ] } },
{ "type": "Feature", "properties": { "fid": 119, "POBLACION_MUNI": 363, "SUPERFICIE": 12008.4392, "_NOMCORP": "Robledo", "_IMPDEUDVIV": 17.99, "_DEUDA": 17991.34, "_cod_ine": "02068", "DEUDA_HAB": 49.562920110192834 }, "geometry": { "type": "Point", "coordinates": [ -2.44882682, 38.75778452 ] } },
{ "type": "Feature", "properties": { "fid": 120, "POBLACION_MUNI": 15515, "SUPERFICIE": 39889.13, "_NOMCORP": "Roda (La)", "_IMPDEUDVIV": 12396.92, "_DEUDA": 12396924.55, "_cod_ine": "02069", "DEUDA_HAB": 799.0283306477603 }, "geometry": { "type": "Point", "coordinates": [ -2.15924796, 39.20706504 ] } },
{ "type": "Feature", "properties": { "fid": 121, "POBLACION_MUNI": 501, "SUPERFICIE": 4952.8648, "_NOMCORP": "Salobre", "_IMPDEUDVIV": 0.0, "_DEUDA": 0.0, "_cod_ine": "02070", "DEUDA_HAB": 0.0 }, "geometry": { "type": "Point", "coordinates": [ -2.55057256, 38.59195258 ] } },
{ "type": "Feature", "properties": { "fid": 122, "POBLACION_MUNI": 1153, "SUPERFICIE": 8311.597, "_NOMCORP": "San Pedro", "_IMPDEUDVIV": 171.86, "_DEUDA": 171863.0, "_cod_ine": "02071", "DEUDA_HAB": 149.05724197745013 }, "geometry": { "type": "Point", "coordinates": [ -2.186211, 38.82654004 ] } },
{ "type": "Feature", "properties": { "fid": 123, "POBLACION_MUNI": 1790, "SUPERFICIE": 13860.6617, "_NOMCORP": "Socovos", "_IMPDEUDVIV": 660.93, "_DEUDA": 660934.64, "_cod_ine": "02072", "DEUDA_HAB": 369.23722905027932 }, "geometry": { "type": "Point", "coordinates": [ -1.98469065, 38.33202632 ] } },
{ "type": "Feature", "properties": { "fid": 124, "POBLACION_MUNI": 6255, "SUPERFICIE": 21268.09, "_NOMCORP": "Tarazona de la Mancha", "_IMPDEUDVIV": 0.0, "_DEUDA": 0.0, "_cod_ine": "02073", "DEUDA_HAB": 0.0 }, "geometry": { "type": "Point", "coordinates": [ -1.91280979, 39.26539647 ] } },
{ "type": "Feature", "properties": { "fid": 125, "POBLACION_MUNI": 7738, "SUPERFICIE": 32464.95, "_NOMCORP": "Tobarra", "_IMPDEUDVIV": 4060.05, "_DEUDA": 4060049.7, "_cod_ine": "02074", "DEUDA_HAB": 524.68980356681311 }, "geometry": { "type": "Point", "coordinates": [ -1.69282296, 38.5922733 ] } },
{ "type": "Feature", "properties": { "fid": 126, "POBLACION_MUNI": 1943, "SUPERFICIE": 7065.62, "_NOMCORP": "Valdeganga", "_IMPDEUDVIV": 563.13, "_DEUDA": 563130.06, "_cod_ine": "02075", "DEUDA_HAB": 289.82504374678336 }, "geometry": { "type": "Point", "coordinates": [ -1.67646922, 39.13545152 ] } },
{ "type": "Feature", "properties": { "fid": 127, "POBLACION_MUNI": 355, "SUPERFICIE": 12803.519, "_NOMCORP": "Vianos", "_IMPDEUDVIV": 17.6, "_DEUDA": 17600.0, "_cod_ine": "02076", "DEUDA_HAB": 49.577464788732392 }, "geometry": { "type": "Point", "coordinates": [ -2.50149079, 38.632307 ] } },
{ "type": "Feature", "properties": { "fid": 128, "POBLACION_MUNI": 57, "SUPERFICIE": 5753.568, "_NOMCORP": "Villa de Ves", "_IMPDEUDVIV": 0.0, "_DEUDA": 0.0, "_cod_ine": "02077", "DEUDA_HAB": 0.0 }, "geometry": { "type": "Point", "coordinates": [ -1.25897631, 39.222315410000014 ] } },
{ "type": "Feature", "properties": { "fid": 129, "POBLACION_MUNI": 1115, "SUPERFICIE": 4668.4938, "_NOMCORP": "Villalgordo del Júcar", "_IMPDEUDVIV": 1039.17, "_DEUDA": 1039169.55, "_cod_ine": "02078", "DEUDA_HAB": 931.9906278026906 }, "geometry": { "type": "Point", "coordinates": [ -2.06309183, 39.295986789999986 ] } },
{ "type": "Feature", "properties": { "fid": 130, "POBLACION_MUNI": 4112, "SUPERFICIE": 12799.1093, "_NOMCORP": "Villamalea", "_IMPDEUDVIV": 0.0, "_DEUDA": 0.0, "_cod_ine": "02079", "DEUDA_HAB": 0.0 }, "geometry": { "type": "Point", "coordinates": [ -1.59908353, 39.36160785 ] } },
{ "type": "Feature", "properties": { "fid": 131, "POBLACION_MUNI": 589, "SUPERFICIE": 8747.7445, "_NOMCORP": "Villapalacios", "_IMPDEUDVIV": 51.07, "_DEUDA": 51065.0, "_cod_ine": "02080", "DEUDA_HAB": 86.697792869269946 }, "geometry": { "type": "Point", "coordinates": [ -2.63505947, 38.57467359 ] } },
{ "type": "Feature", "properties": { "fid": 132, "POBLACION_MUNI": 25241, "SUPERFICIE": 86240.7816, "_NOMCORP": "Villarrobledo", "_IMPDEUDVIV": 19411.77, "_DEUDA": 19411769.43, "_cod_ine": "02081", "DEUDA_HAB": 769.05706707341233 }, "geometry": { "type": "Point", "coordinates": [ -2.60714311, 39.26755792 ] } },
{ "type": "Feature", "properties": { "fid": 133, "POBLACION_MUNI": 95, "SUPERFICIE": 1882.3517, "_NOMCORP": "Villatoya", "_IMPDEUDVIV": 169.84, "_DEUDA": 169843.1, "_cod_ine": "02082", "DEUDA_HAB": 1787.8221052631579 }, "geometry": { "type": "Point", "coordinates": [ -1.33858599, 39.333852640000011 ] } },
{ "type": "Feature", "properties": { "fid": 134, "POBLACION_MUNI": 226, "SUPERFICIE": 3484.1712, "_NOMCORP": "Villavaliente", "_IMPDEUDVIV": 50.68, "_DEUDA": 50681.0, "_cod_ine": "02083", "DEUDA_HAB": 224.25221238938053 }, "geometry": { "type": "Point", "coordinates": [ -1.45799642, 39.12645758 ] } },
{ "type": "Feature", "properties": { "fid": 135, "POBLACION_MUNI": 340, "SUPERFICIE": 6907.9679, "_NOMCORP": "Villaverde de Guadalimar", "_IMPDEUDVIV": 7.93, "_DEUDA": 7933.0, "_cod_ine": "02084", "DEUDA_HAB": 23.33235294117647 }, "geometry": { "type": "Point", "coordinates": [ -2.5176095, 38.45619162 ] } },
{ "type": "Feature", "properties": { "fid": 136, "POBLACION_MUNI": 340, "SUPERFICIE": 6536.6666, "_NOMCORP": "Viveros", "_IMPDEUDVIV": 0.0, "_DEUDA": 0.0, "_cod_ine": "02085", "DEUDA_HAB": 0.0 }, "geometry": { "type": "Point", "coordinates": [ -2.57590915, 38.77363475 ] } },
{ "type": "Feature", "properties": { "fid": 137, "POBLACION_MUNI": 2674, "SUPERFICIE": 51122.0829, "_NOMCORP": "Yeste", "_IMPDEUDVIV": 3726.15, "_DEUDA": 3726154.24, "_cod_ine": "02086", "DEUDA_HAB": 1393.4757816005983 }, "geometry": { "type": "Point", "coordinates": [ -2.31903072, 38.36643865 ] } },
{ "type": "Feature", "properties": { "fid": 138, "POBLACION_MUNI": 2786, "SUPERFICIE": 11683.38, "_NOMCORP": "Pozo Cañada", "_IMPDEUDVIV": 209.07, "_DEUDA": 209068.0, "_cod_ine": "02901", "DEUDA_HAB": 75.042354630294327 }, "geometry": { "type": "Point", "coordinates": [ -1.73622317, 38.801361 ] } },
{ "type": "Feature", "properties": { "fid": 139, "POBLACION_MUNI": 661, "SUPERFICIE": 1466.9574, "_NOMCORP": "Atzúbia (l')", "_IMPDEUDVIV": 128.21, "_DEUDA": 128212.13, "_cod_ine": "03001", "DEUDA_HAB": 193.96691376701966 }, "geometry": { "type": "Point", "coordinates": [ -0.15173035, 38.84743029 ] } },
{ "type": "Feature", "properties": { "fid": 140, "POBLACION_MUNI": 4713, "SUPERFICIE": 6663.5352, "_NOMCORP": "Agost", "_IMPDEUDVIV": 2.07, "_DEUDA": 2067.0, "_cod_ine": "03002", "DEUDA_HAB": 0.4385741565881604 }, "geometry": { "type": "Point", "coordinates": [ -0.63891979, 38.43949316 ] } },
{ "type": "Feature", "properties": { "fid": 141, "POBLACION_MUNI": 551, "SUPERFICIE": 2583.659, "_NOMCORP": "Agres", "_IMPDEUDVIV": 0.0, "_DEUDA": 0.0, "_cod_ine": "03003", "DEUDA_HAB": 0.0 }, "geometry": { "type": "Point", "coordinates": [ -0.51595543, 38.78000404 ] } },
{ "type": "Feature", "properties": { "fid": 142, "POBLACION_MUNI": 936, "SUPERFICIE": 1847.2816, "_NOMCORP": "Aigües", "_IMPDEUDVIV": 878.48, "_DEUDA": 878481.37, "_cod_ine": "03004", "DEUDA_HAB": 938.54847222222224 }, "geometry": { "type": "Point", "coordinates": [ -0.36258669, 38.49887092 ] } },
{ "type": "Feature", "properties": { "fid": 143, "POBLACION_MUNI": 12042, "SUPERFICIE": 6154.27, "_NOMCORP": "Albatera", "_IMPDEUDVIV": 2534.41, "_DEUDA": 2534412.0, "_cod_ine": "03005", "DEUDA_HAB": 210.46437468858994 }, "geometry": { "type": "Point", "coordinates": [ -0.86792141, 38.17894636 ] } },
{ "type": "Feature", "properties": { "fid": 144, "POBLACION_MUNI": 1298, "SUPERFICIE": 1439.7787, "_NOMCORP": "Alcalalí", "_IMPDEUDVIV": 0.0, "_DEUDA": 0.0, "_cod_ine": "03006", "DEUDA_HAB": 0.0 }, "geometry": { "type": "Point", "coordinates": [ -0.04160798, 38.74965349 ] } },
{ "type": "Feature", "properties": { "fid": 145, "POBLACION_MUNI": 229, "SUPERFICIE": 438.7155, "_NOMCORP": "Alcocer de Planes", "_IMPDEUDVIV": 0.0, "_DEUDA": 0.0, "_cod_ine": "03007", "DEUDA_HAB": 0.0 }, "geometry": { "type": "Point", "coordinates": [ -0.40197036, 38.794472239999983 ] } },
{ "type": "Feature", "properties": { "fid": 146, "POBLACION_MUNI": 180, "SUPERFICIE": 1455.8836, "_NOMCORP": "Alcoleja", "_IMPDEUDVIV": 0.0, "_DEUDA": 0.0, "_cod_ine": "03008", "DEUDA_HAB": 0.0 }, "geometry": { "type": "Point", "coordinates": [ -0.33100925, 38.67548564 ] } },
{ "type": "Feature", "properties": { "fid": 147, "POBLACION_MUNI": 58977, "SUPERFICIE": 12986.0503, "_NOMCORP": "Alcoy\/Alcoi", "_IMPDEUDVIV": 22261.0, "_DEUDA": 22260996.89, "_cod_ine": "03009", "DEUDA_HAB": 377.45217440697223 }, "geometry": { "type": "Point", "coordinates": [ -0.47318376, 38.69836894 ] } },
{ "type": "Feature", "properties": { "fid": 148, "POBLACION_MUNI": 407, "SUPERFICIE": 1977.7677, "_NOMCORP": "Alfafara", "_IMPDEUDVIV": 0.0, "_DEUDA": 0.01, "_cod_ine": "03010", "DEUDA_HAB": 2.457002457002457e-05 }, "geometry": { "type": "Point", "coordinates": [ -0.55552339, 38.77274828 ] } },
{ "type": "Feature", "properties": { "fid": 149, "POBLACION_MUNI": 20053, "SUPERFICIE": 1925.9507, "_NOMCORP": "Alfàs del Pi (l')", "_IMPDEUDVIV": 9511.35, "_DEUDA": 9511348.87, "_cod_ine": "03011", "DEUDA_HAB": 474.31052062035599 }, "geometry": { "type": "Point", "coordinates": [ -0.1026002, 38.58009496 ] } },
{ "type": "Feature", "properties": { "fid": 150, "POBLACION_MUNI": 2838, "SUPERFICIE": 1847.09, "_NOMCORP": "Algorfa", "_IMPDEUDVIV": 394.24, "_DEUDA": 394244.3, "_cod_ine": "03012", "DEUDA_HAB": 138.91624383368568 }, "geometry": { "type": "Point", "coordinates": [ -0.79568423, 38.08681637 ] } },
{ "type": "Feature", "properties": { "fid": 151, "POBLACION_MUNI": 1341, "SUPERFICIE": 1843.3139, "_NOMCORP": "Algueña", "_IMPDEUDVIV": 0.0, "_DEUDA": 0.0, "_cod_ine": "03013", "DEUDA_HAB": 0.0 }, "geometry": { "type": "Point", "coordinates": [ -1.00303745, 38.33800138 ] } },
{ "type": "Feature", "properties": { "fid": 152, "POBLACION_MUNI": 331577, "SUPERFICIE": 20126.5845, "_NOMCORP": "Alicante\/Alacant", "_IMPDEUDVIV": 24908.87, "_DEUDA": 24908873.09, "_cod_ine": "03014", "DEUDA_HAB": 75.122439403215537 }, "geometry": { "type": "Point", "coordinates": [ -0.4831832, 38.34548705000001 ] } },
{ "type": "Feature", "properties": { "fid": 153, "POBLACION_MUNI": 20542, "SUPERFICIE": 4269.4, "_NOMCORP": "Almoradí", "_IMPDEUDVIV": 1827.1, "_DEUDA": 1827102.0, "_cod_ine": "03015", "DEUDA_HAB": 88.944698666147403 }, "geometry": { "type": "Point", "coordinates": [ -0.79201713, 38.10977991 ] } },
{ "type": "Feature", "properties": { "fid": 154, "POBLACION_MUNI": 104, "SUPERFICIE": 882.0194, "_NOMCORP": "Almudaina", "_IMPDEUDVIV": 0.0, "_DEUDA": 0.0, "_cod_ine": "03016", "DEUDA_HAB": 0.0 }, "geometry": { "type": "Point", "coordinates": [ -0.35370678, 38.76155764 ] } },
{ "type": "Feature", "properties": { "fid": 155, "POBLACION_MUNI": 491, "SUPERFICIE": 108.3702, "_NOMCORP": "Alqueria d'Asnar (l')", "_IMPDEUDVIV": 0.0, "_DEUDA": 0.0, "_cod_ine": "03017", "DEUDA_HAB": 0.0 }, "geometry": { "type": "Point", "coordinates": [ -0.42552267, 38.77311802 ] } },
{ "type": "Feature", "properties": { "fid": 156, "POBLACION_MUNI": 21995, "SUPERFICIE": 3442.7986, "_NOMCORP": "Altea", "_IMPDEUDVIV": 7772.48, "_DEUDA": 7772478.18, "_cod_ine": "03018", "DEUDA_HAB": 353.3747751761764 }, "geometry": { "type": "Point", "coordinates": [ -0.05144236, 38.59892497 ] } },
{ "type": "Feature", "properties": { "fid": 157, "POBLACION_MUNI": 20537, "SUPERFICIE": 7057.09, "_NOMCORP": "Aspe", "_IMPDEUDVIV": 3.8, "_DEUDA": 3800.02, "_cod_ine": "03019", "DEUDA_HAB": 0.18503286750742562 }, "geometry": { "type": "Point", "coordinates": [ -0.76849107, 38.34577266 ] } },
{ "type": "Feature", "properties": { "fid": 158, "POBLACION_MUNI": 122, "SUPERFICIE": 1125.0, "_NOMCORP": "Balones", "_IMPDEUDVIV": 0.0, "_DEUDA": 0.0, "_cod_ine": "03020", "DEUDA_HAB": 0.0 }, "geometry": { "type": "Point", "coordinates": [ -0.34237388, 38.737010389999988 ] } },
{ "type": "Feature", "properties": { "fid": 159, "POBLACION_MUNI": 7113, "SUPERFICIE": 5027.5886, "_NOMCORP": "Banyeres de Mariola", "_IMPDEUDVIV": 0.52, "_DEUDA": 518.0, "_cod_ine": "03021", "DEUDA_HAB": 0.072824406017151691 }, "geometry": { "type": "Point", "coordinates": [ -0.65685684, 38.71635902 ] } },
{ "type": "Feature", "properties": { "fid": 160, "POBLACION_MUNI": 156, "SUPERFICIE": 904.039, "_NOMCORP": "Benasau", "_IMPDEUDVIV": 0.0, "_DEUDA": 0.05, "_cod_ine": "03022", "DEUDA_HAB": 0.00032051282051282051 }, "geometry": { "type": "Point", "coordinates": [ -0.34261264, 38.68991329 ] } },
{ "type": "Feature", "properties": { "fid": 161, "POBLACION_MUNI": 1703, "SUPERFICIE": 3488.8204, "_NOMCORP": "Beneixama", "_IMPDEUDVIV": 156.09, "_DEUDA": 156092.0, "_cod_ine": "03023", "DEUDA_HAB": 91.657075748678807 }, "geometry": { "type": "Point", "coordinates": [ -0.76676743, 38.70018533 ] } },
{ "type": "Feature", "properties": { "fid": 162, "POBLACION_MUNI": 5361, "SUPERFICIE": 932.7958, "_NOMCORP": "Benejúzar", "_IMPDEUDVIV": 0.0, "_DEUDA": 0.0, "_cod_ine": "03024", "DEUDA_HAB": 0.0 }, "geometry": { "type": "Point", "coordinates": [ -0.83819517, 38.07806375 ] } },
{ "type": "Feature", "properties": { "fid": 163, "POBLACION_MUNI": 1940, "SUPERFICIE": 1236.2348, "_NOMCORP": "Benferri", "_IMPDEUDVIV": 501.62, "_DEUDA": 501622.37, "_cod_ine": "03025", "DEUDA_HAB": 258.56823195876291 }, "geometry": { "type": "Point", "coordinates": [ -0.9622579, 38.14179352 ] } },
{ "type": "Feature", "properties": { "fid": 164, "POBLACION_MUNI": 1983, "SUPERFICIE": 740.3238, "_NOMCORP": "Beniarbeig", "_IMPDEUDVIV": 213.85, "_DEUDA": 213846.19, "_cod_ine": "03026", "DEUDA_HAB": 107.83973272818962 }, "geometry": { "type": "Point", "coordinates": [ -0.00130364, 38.82193219 ] } },
{ "type": "Feature", "properties": { "fid": 165, "POBLACION_MUNI": 178, "SUPERFICIE": 1573.9453, "_NOMCORP": "Beniardá", "_IMPDEUDVIV": 0.0, "_DEUDA": 0.0, "_cod_ine": "03027", "DEUDA_HAB": 0.0 }, "geometry": { "type": "Point", "coordinates": [ -0.21600764, 38.68343356 ] } },
{ "type": "Feature", "properties": { "fid": 166, "POBLACION_MUNI": 1118, "SUPERFICIE": 2021.3756, "_NOMCORP": "Beniarrés", "_IMPDEUDVIV": 97.31, "_DEUDA": 97307.55, "_cod_ine": "03028", "DEUDA_HAB": 87.03716457960644 }, "geometry": { "type": "Point", "coordinates": [ -0.37904234, 38.82007885 ] } },
{ "type": "Feature", "properties": { "fid": 167, "POBLACION_MUNI": 444, "SUPERFICIE": 1845.4265, "_NOMCORP": "Benigembla", "_IMPDEUDVIV": 0.0, "_DEUDA": 0.0, "_cod_ine": "03029", "DEUDA_HAB": 0.0 }, "geometry": { "type": "Point", "coordinates": [ -0.10982699, 38.75633514 ] } },
{ "type": "Feature", "properties": { "fid": 168, "POBLACION_MUNI": 1110, "SUPERFICIE": 748.4278, "_NOMCORP": "Benidoleig", "_IMPDEUDVIV": 0.0, "_DEUDA": 0.0, "_cod_ine": "03030", "DEUDA_HAB": 0.0 }, "geometry": { "type": "Point", "coordinates": [ -0.03173239, 38.791917 ] } },
{ "type": "Feature", "properties": { "fid": 169, "POBLACION_MUNI": 67558, "SUPERFICIE": 3850.9874, "_NOMCORP": "Benidorm", "_IMPDEUDVIV": 35043.68, "_DEUDA": 35043678.85, "_cod_ine": "03031", "DEUDA_HAB": 518.7198977175168 }, "geometry": { "type": "Point", "coordinates": [ -0.1306853, 38.53427136 ] } },
{ "type": "Feature", "properties": { "fid": 170, "POBLACION_MUNI": 108, "SUPERFICIE": 1368.8379, "_NOMCORP": "Benifallim", "_IMPDEUDVIV": 0.0, "_DEUDA": 0.0, "_cod_ine": "03032", "DEUDA_HAB": 0.0 }, "geometry": { "type": "Point", "coordinates": [ -0.39922559, 38.66273419 ] } },
{ "type": "Feature", "properties": { "fid": 171, "POBLACION_MUNI": 149, "SUPERFICIE": 1188.0505, "_NOMCORP": "Benifato", "_IMPDEUDVIV": 0.0, "_DEUDA": 0.0, "_cod_ine": "03033", "DEUDA_HAB": 0.0 }, "geometry": { "type": "Point", "coordinates": [ -0.22888967, 38.67369418 ] } },
{ "type": "Feature", "properties": { "fid": 172, "POBLACION_MUNI": 3357, "SUPERFICIE": 435.9954, "_NOMCORP": "Benijófar", "_IMPDEUDVIV": 2269.86, "_DEUDA": 2269857.66, "_cod_ine": "03034", "DEUDA_HAB": 676.1565862377123 }, "geometry": { "type": "Point", "coordinates": [ -0.73828051, 38.0808408 ] } },
{ "type": "Feature", "properties": { "fid": 173, "POBLACION_MUNI": 742, "SUPERFICIE": 953.8103, "_NOMCORP": "Benilloba", "_IMPDEUDVIV": 90.06, "_DEUDA": 90059.73, "_cod_ine": "03035", "DEUDA_HAB": 121.37429919137466 }, "geometry": { "type": "Point", "coordinates": [ -0.3908201, 38.699559089999987 ] } },
{ "type": "Feature", "properties": { "fid": 174, "POBLACION_MUNI": 94, "SUPERFICIE": 337.8822, "_NOMCORP": "Benillup", "_IMPDEUDVIV": 0.0, "_DEUDA": 0.0, "_cod_ine": "03036", "DEUDA_HAB": 0.0 }, "geometry": { "type": "Point", "coordinates": [ -0.3789958, 38.75380301 ] } },
{ "type": "Feature", "properties": { "fid": 175, "POBLACION_MUNI": 490, "SUPERFICIE": 3792.79, "_NOMCORP": "Benimantell", "_IMPDEUDVIV": 0.0, "_DEUDA": 0.0, "_cod_ine": "03037", "DEUDA_HAB": 0.0 }, "geometry": { "type": "Point", "coordinates": [ -0.20984798, 38.67659254 ] } },
{ "type": "Feature", "properties": { "fid": 176, "POBLACION_MUNI": 413, "SUPERFICIE": 556.3613, "_NOMCORP": "Benimarfull", "_IMPDEUDVIV": 0.0, "_DEUDA": 0.0, "_cod_ine": "03038", "DEUDA_HAB": 0.0 }, "geometry": { "type": "Point", "coordinates": [ -0.39099875, 38.77584801 ] } },
{ "type": "Feature", "properties": { "fid": 177, "POBLACION_MUNI": 96, "SUPERFICIE": 951.2727, "_NOMCORP": "Benimassot", "_IMPDEUDVIV": 0.0, "_DEUDA": 0.0, "_cod_ine": "03039", "DEUDA_HAB": 0.0 }, "geometry": { "type": "Point", "coordinates": [ -0.291855, 38.74905825 ] } },
{ "type": "Feature", "properties": { "fid": 178, "POBLACION_MUNI": 410, "SUPERFICIE": 350.4942, "_NOMCORP": "Benimeli", "_IMPDEUDVIV": 0.0, "_DEUDA": 0.0, "_cod_ine": "03040", "DEUDA_HAB": 0.0 }, "geometry": { "type": "Point", "coordinates": [ -0.04146491, 38.82296616 ] } },
{ "type": "Feature", "properties": { "fid": 179, "POBLACION_MUNI": 10768, "SUPERFICIE": 6970.7341, "_NOMCORP": "Benissa", "_IMPDEUDVIV": 0.03, "_DEUDA": 27.0, "_cod_ine": "03041", "DEUDA_HAB": 0.0025074294205052008 }, "geometry": { "type": "Point", "coordinates": [ 0.05043358, 38.7151969 ] } },
{ "type": "Feature", "properties": { "fid": 180, "POBLACION_MUNI": 4130, "SUPERFICIE": 1265.3812, "_NOMCORP": "Benitachell\/Poble Nou de Benitatxell (el)", "_IMPDEUDVIV": 0.08, "_DEUDA": 77.0, "_cod_ine": "03042", "DEUDA_HAB": 0.01864406779661017 }, "geometry": { "type": "Point", "coordinates": [ 0.14459559, 38.73292416 ] } },
{ "type": "Feature", "properties": { "fid": 181, "POBLACION_MUNI": 3651, "SUPERFICIE": 9816.5159, "_NOMCORP": "Biar", "_IMPDEUDVIV": 0.0, "_DEUDA": 0.0, "_cod_ine": "03043", "DEUDA_HAB": 0.0 }, "geometry": { "type": "Point", "coordinates": [ -0.76597374, 38.62996229 ] } },
{ "type": "Feature", "properties": { "fid": 182, "POBLACION_MUNI": 6702, "SUPERFICIE": 409.8141, "_NOMCORP": "Bigastro", "_IMPDEUDVIV": 15962.03, "_DEUDA": 15962033.69, "_cod_ine": "03044", "DEUDA_HAB": 2381.6821381677109 }, "geometry": { "type": "Point", "coordinates": [ -0.89528476, 38.06301558 ] } },
{ "type": "Feature", "properties": { "fid": 183, "POBLACION_MUNI": 418, "SUPERFICIE": 1357.1512, "_NOMCORP": "Bolulla", "_IMPDEUDVIV": 0.0, "_DEUDA": 0.0, "_cod_ine": "03045", "DEUDA_HAB": 0.0 }, "geometry": { "type": "Point", "coordinates": [ -0.11168494, 38.67657681 ] } },
{ "type": "Feature", "properties": { "fid": 184, "POBLACION_MUNI": 2925, "SUPERFICIE": 3384.1908, "_NOMCORP": "Busot", "_IMPDEUDVIV": 604.34, "_DEUDA": 604337.0, "_cod_ine": "03046", "DEUDA_HAB": 206.61094017094018 }, "geometry": { "type": "Point", "coordinates": [ -0.42050568, 38.4819618 ] } },
{ "type": "Feature", "properties": { "fid": 185, "POBLACION_MUNI": 21633, "SUPERFICIE": 2350.9119, "_NOMCORP": "Calp", "_IMPDEUDVIV": 19258.7, "_DEUDA": 19258700.99, "_cod_ine": "03047", "DEUDA_HAB": 890.24642860444681 }, "geometry": { "type": "Point", "coordinates": [ 0.04453809, 38.64526261 ] } },
{ "type": "Feature", "properties": { "fid": 186, "POBLACION_MUNI": 7257, "SUPERFICIE": 3466.1654, "_NOMCORP": "Callosa d'en Sarrià", "_IMPDEUDVIV": 290.07, "_DEUDA": 290070.0, "_cod_ine": "03048", "DEUDA_HAB": 39.971062422488629 }, "geometry": { "type": "Point", "coordinates": [ -0.12235041, 38.651640660000012 ] } },
{ "type": "Feature", "properties": { "fid": 187, "POBLACION_MUNI": 18864, "SUPERFICIE": 2483.15, "_NOMCORP": "Callosa de Segura", "_IMPDEUDVIV": 8004.95, "_DEUDA": 8004952.4, "_cod_ine": "03049", "DEUDA_HAB": 424.35074215436811 }, "geometry": { "type": "Point", "coordinates": [ -0.87933854, 38.12258136 ] } },
{ "type": "Feature", "properties": { "fid": 188, "POBLACION_MUNI": 27893, "SUPERFICIE": 5526.7822, "_NOMCORP": "Campello (el)", "_IMPDEUDVIV": 855.89, "_DEUDA": 855890.0, "_cod_ine": "03050", "DEUDA_HAB": 30.684759617108234 }, "geometry": { "type": "Point", "coordinates": [ -0.40086509, 38.42754724000001 ] } },
{ "type": "Feature", "properties": { "fid": 189, "POBLACION_MUNI": 428, "SUPERFICIE": 2181.5853, "_NOMCORP": "Campo de Mirra\/Camp de Mirra (el)", "_IMPDEUDVIV": 0.0, "_DEUDA": 0.0, "_cod_ine": "03051", "DEUDA_HAB": 0.0 }, "geometry": { "type": "Point", "coordinates": [ -0.77925393, 38.68719624 ] } },
{ "type": "Feature", "properties": { "fid": 190, "POBLACION_MUNI": 1214, "SUPERFICIE": 1932.4451, "_NOMCORP": "Cañada", "_IMPDEUDVIV": 0.0, "_DEUDA": 0.0, "_cod_ine": "03052", "DEUDA_HAB": 0.0 }, "geometry": { "type": "Point", "coordinates": [ -0.80952172, 38.67518917 ] } },
{ "type": "Feature", "properties": { "fid": 191, "POBLACION_MUNI": 9880, "SUPERFICIE": 11459.9725, "_NOMCORP": "Castalla", "_IMPDEUDVIV": 0.0, "_DEUDA": 0.0, "_cod_ine": "03053", "DEUDA_HAB": 0.0 }, "geometry": { "type": "Point", "coordinates": [ -0.67026538, 38.59657643 ] } },
{ "type": "Feature", "properties": { "fid": 192, "POBLACION_MUNI": 435, "SUPERFICIE": 4592.67, "_NOMCORP": "Castell de Castells", "_IMPDEUDVIV": 0.0, "_DEUDA": 0.0, "_cod_ine": "03054", "DEUDA_HAB": 0.0 }, "geometry": { "type": "Point", "coordinates": [ -0.19391054, 38.72499704 ] } },
{ "type": "Feature", "properties": { "fid": 193, "POBLACION_MUNI": 8631, "SUPERFICIE": 2000.8229, "_NOMCORP": "Catral", "_IMPDEUDVIV": 1503.38, "_DEUDA": 1503375.64, "_cod_ine": "03055", "DEUDA_HAB": 174.18325107171822 }, "geometry": { "type": "Point", "coordinates": [ -0.80464175, 38.15964959 ] } },
{ "type": "Feature", "properties": { "fid": 194, "POBLACION_MUNI": 11456, "SUPERFICIE": 5294.4709, "_NOMCORP": "Cocentaina", "_IMPDEUDVIV": 0.0, "_DEUDA": 0.0, "_cod_ine": "03056", "DEUDA_HAB": 0.0 }, "geometry": { "type": "Point", "coordinates": [ -0.44022067, 38.74541202 ] } },
{ "type": "Feature", "properties": { "fid": 195, "POBLACION_MUNI": 208, "SUPERFICIE": 3998.3328, "_NOMCORP": "Confrides", "_IMPDEUDVIV": 0.0, "_DEUDA": 0.0, "_cod_ine": "03057", "DEUDA_HAB": 0.0 }, "geometry": { "type": "Point", "coordinates": [ -0.26810894, 38.68353731 ] } },
{ "type": "Feature", "properties": { "fid": 196, "POBLACION_MUNI": 7226, "SUPERFICIE": 1670.97, "_NOMCORP": "Cox", "_IMPDEUDVIV": 1808.16, "_DEUDA": 1808156.59, "_cod_ine": "03058", "DEUDA_HAB": 250.22925408247994 }, "geometry": { "type": "Point", "coordinates": [ -0.88437585, 38.13972138 ] } },
{ "type": "Feature", "properties": { "fid": 197, "POBLACION_MUNI": 28957, "SUPERFICIE": 10455.01, "_NOMCORP": "Crevillent", "_IMPDEUDVIV": 4435.31, "_DEUDA": 4435308.0, "_cod_ine": "03059", "DEUDA_HAB": 153.16876748281936 }, "geometry": { "type": "Point", "coordinates": [ -0.80855322, 38.24881414 ] } },
{ "type": "Feature", "properties": { "fid": 198, "POBLACION_MUNI": 121, "SUPERFICIE": 1670.4812, "_NOMCORP": "Quatretondeta", "_IMPDEUDVIV": 0.22, "_DEUDA": 219.0, "_cod_ine": "03060", "DEUDA_HAB": 1.8099173553719008 }, "geometry": { "type": "Point", "coordinates": [ -0.31641906, 38.72386675 ] } },
{ "type": "Feature", "properties": { "fid": 199, "POBLACION_MUNI": 1718, "SUPERFICIE": 709.3467, "_NOMCORP": "Daya Nueva", "_IMPDEUDVIV": 981.14, "_DEUDA": 981141.26, "_cod_ine": "03061", "DEUDA_HAB": 571.09502910360891 }, "geometry": { "type": "Point", "coordinates": [ -0.76103525, 38.11371672 ] } },
{ "type": "Feature", "properties": { "fid": 200, "POBLACION_MUNI": 685, "SUPERFICIE": 314.2879, "_NOMCORP": "Daya Vieja", "_IMPDEUDVIV": 2562.61, "_DEUDA": 2562612.74, "_cod_ine": "03062", "DEUDA_HAB": 3741.0404963503652 }, "geometry": { "type": "Point", "coordinates": [ -0.73805702, 38.1047248 ] } },
{ "type": "Feature", "properties": { "fid": 201, "POBLACION_MUNI": 41733, "SUPERFICIE": 6617.916, "_NOMCORP": "Dénia", "_IMPDEUDVIV": 28843.54, "_DEUDA": 28843544.53, "_cod_ine": "03063", "DEUDA_HAB": 691.1447662521266 }, "geometry": { "type": "Point", "coordinates": [ 0.10661934, 38.841227049999986 ] } },
{ "type": "Feature", "properties": { "fid": 202, "POBLACION_MUNI": 7383, "SUPERFICIE": 1870.1083, "_NOMCORP": "Dolores", "_IMPDEUDVIV": 1674.77, "_DEUDA": 1674774.0, "_cod_ine": "03064", "DEUDA_HAB": 226.84193417310036 }, "geometry": { "type": "Point", "coordinates": [ -0.76969869, 38.13897736 ] } },
{ "type": "Feature", "properties": { "fid": 203, "POBLACION_MUNI": 230625, "SUPERFICIE": 32650.14, "_NOMCORP": "Elche\/Elx", "_IMPDEUDVIV": 37814.77, "_DEUDA": 37814765.0, "_cod_ine": "03065", "DEUDA_HAB": 163.96646070460704 }, "geometry": { "type": "Point", "coordinates": [ -0.69775581, 38.267416619999985 ] } },
{ "type": "Feature", "properties": { "fid": 204, "POBLACION_MUNI": 52404, "SUPERFICIE": 4578.8813, "_NOMCORP": "Elda", "_IMPDEUDVIV": 15.79, "_DEUDA": 15787.02, "_cod_ine": "03066", "DEUDA_HAB": 0.30125601099152738 }, "geometry": { "type": "Point", "coordinates": [ -0.79611046, 38.47878894 ] } },
{ "type": "Feature", "properties": { "fid": 205, "POBLACION_MUNI": 101, "SUPERFICIE": 1017.479, "_NOMCORP": "Facheca", "_IMPDEUDVIV": 0.0, "_DEUDA": 0.0, "_cod_ine": "03067", "DEUDA_HAB": 0.0 }, "geometry": { "type": "Point", "coordinates": [ -0.26771337, 38.73467536 ] } },
{ "type": "Feature", "properties": { "fid": 206, "POBLACION_MUNI": 53, "SUPERFICIE": 972.4032, "_NOMCORP": "Famorca", "_IMPDEUDVIV": 0.0, "_DEUDA": 0.0, "_cod_ine": "03068", "DEUDA_HAB": 0.0 }, "geometry": { "type": "Point", "coordinates": [ -0.24604552, 38.732193380000012 ] } },
{ "type": "Feature", "properties": { "fid": 207, "POBLACION_MUNI": 6381, "SUPERFICIE": 4225.3968, "_NOMCORP": "Finestrat", "_IMPDEUDVIV": 13657.62, "_DEUDA": 13657623.77, "_cod_ine": "03069", "DEUDA_HAB": 2140.3579015828241 }, "geometry": { "type": "Point", "coordinates": [ -0.2117688, 38.56697349 ] } },
{ "type": "Feature", "properties": { "fid": 208, "POBLACION_MUNI": 4131, "SUPERFICIE": 433.1745, "_NOMCORP": "Formentera del Segura", "_IMPDEUDVIV": 1.17, "_DEUDA": 1166.0, "_cod_ine": "03070", "DEUDA_HAB": 0.2822561123214718 }, "geometry": { "type": "Point", "coordinates": [ -0.74649853, 38.08423377 ] } },
{ "type": "Feature", "properties": { "fid": 209, "POBLACION_MUNI": 5893, "SUPERFICIE": 2033.1876, "_NOMCORP": "Gata de Gorgos", "_IMPDEUDVIV": 521.22, "_DEUDA": 521220.0, "_cod_ine": "03071", "DEUDA_HAB": 88.447310368233502 }, "geometry": { "type": "Point", "coordinates": [ 0.08427495, 38.7732101 ] } },
{ "type": "Feature", "properties": { "fid": 210, "POBLACION_MUNI": 471, "SUPERFICIE": 957.1426, "_NOMCORP": "Gaianes", "_IMPDEUDVIV": 0.0, "_DEUDA": 0.0, "_cod_ine": "03072", "DEUDA_HAB": 0.0 }, "geometry": { "type": "Point", "coordinates": [ -0.40755768, 38.81311114 ] } },
{ "type": "Feature", "properties": { "fid": 211, "POBLACION_MUNI": 258, "SUPERFICIE": 910.6836, "_NOMCORP": "Gorga", "_IMPDEUDVIV": 0.0, "_DEUDA": 0.0, "_cod_ine": "03073", "DEUDA_HAB": 0.0 }, "geometry": { "type": "Point", "coordinates": [ -0.35671735, 38.71833445 ] } },
{ "type": "Feature", "properties": { "fid": 212, "POBLACION_MUNI": 2489, "SUPERFICIE": 716.89, "_NOMCORP": "Granja de Rocamora", "_IMPDEUDVIV": 67.09, "_DEUDA": 67091.0, "_cod_ine": "03074", "DEUDA_HAB": 26.955002008838893 }, "geometry": { "type": "Point", "coordinates": [ -0.89001674, 38.15262779 ] } },
{ "type": "Feature", "properties": { "fid": 213, "POBLACION_MUNI": 209, "SUPERFICIE": 1596.02, "_NOMCORP": "Castell de Guadalest (El)", "_IMPDEUDVIV": 139.97, "_DEUDA": 139973.0, "_cod_ine": "03075", "DEUDA_HAB": 669.72727272727275 }, "geometry": { "type": "Point", "coordinates": [ -0.19735239, 38.67694213 ] } },
{ "type": "Feature", "properties": { "fid": 214, "POBLACION_MUNI": 15058, "SUPERFICIE": 3393.72, "_NOMCORP": "Guardamar del Segura", "_IMPDEUDVIV": 4322.94, "_DEUDA": 4322936.0, "_cod_ine": "03076", "DEUDA_HAB": 287.08566874750966 }, "geometry": { "type": "Point", "coordinates": [ -0.65477035, 38.08988071000001 ] } },
{ "type": "Feature", "properties": { "fid": 215, "POBLACION_MUNI": 2474, "SUPERFICIE": 6885.1772, "_NOMCORP": "Fondó de les Neus (El)\/Hondón de las Nieves", "_IMPDEUDVIV": 0.0, "_DEUDA": 0.0, "_cod_ine": "03077", "DEUDA_HAB": 0.0 }, "geometry": { "type": "Point", "coordinates": [ -0.85486637, 38.30855695 ] } },
{ "type": "Feature", "properties": { "fid": 216, "POBLACION_MUNI": 1132, "SUPERFICIE": 1254.5898, "_NOMCORP": "Hondón de los Frailes", "_IMPDEUDVIV": 0.0, "_DEUDA": 0.0, "_cod_ine": "03078", "DEUDA_HAB": 0.0 }, "geometry": { "type": "Point", "coordinates": [ -0.92699487, 38.27358559 ] } },
{ "type": "Feature", "properties": { "fid": 217, "POBLACION_MUNI": 23403, "SUPERFICIE": 6252.4351, "_NOMCORP": "Ibi", "_IMPDEUDVIV": 5676.78, "_DEUDA": 5676782.0, "_cod_ine": "03079", "DEUDA_HAB": 242.56642310814854 }, "geometry": { "type": "Point", "coordinates": [ -0.57466482, 38.62745682 ] } },
{ "type": "Feature", "properties": { "fid": 218, "POBLACION_MUNI": 1986, "SUPERFICIE": 1220.4205, "_NOMCORP": "Jacarilla", "_IMPDEUDVIV": 0.0, "_DEUDA": 0.0, "_cod_ine": "03080", "DEUDA_HAB": 0.0 }, "geometry": { "type": "Point", "coordinates": [ -0.86635637, 38.06070041 ] } },
{ "type": "Feature", "properties": { "fid": 219, "POBLACION_MUNI": 2683, "SUPERFICIE": 3458.6303, "_NOMCORP": "Xaló", "_IMPDEUDVIV": 0.0, "_DEUDA": 0.0, "_cod_ine": "03081", "DEUDA_HAB": 0.0 }, "geometry": { "type": "Point", "coordinates": [ -0.01192072, 38.74069906 ] } },
{ "type": "Feature", "properties": { "fid": 220, "POBLACION_MUNI": 27224, "SUPERFICIE": 6859.0349, "_NOMCORP": "Jávea\/Xàbia", "_IMPDEUDVIV": 2075.22, "_DEUDA": 2075217.0, "_cod_ine": "03082", "DEUDA_HAB": 76.22748310314428 }, "geometry": { "type": "Point", "coordinates": [ 0.16340067, 38.78925837 ] } },
{ "type": "Feature", "properties": { "fid": 221, "POBLACION_MUNI": 6875, "SUPERFICIE": 16376.0691, "_NOMCORP": "Jijona\/Xixona", "_IMPDEUDVIV": 0.0, "_DEUDA": 0.0, "_cod_ine": "03083", "DEUDA_HAB": 0.0 }, "geometry": { "type": "Point", "coordinates": [ -0.50791278, 38.53902509 ] } },
{ "type": "Feature", "properties": { "fid": 222, "POBLACION_MUNI": 596, "SUPERFICIE": 3176.4696, "_NOMCORP": "Lorcha\/Orxa (l')", "_IMPDEUDVIV": 638.01, "_DEUDA": 638012.78, "_cod_ine": "03084", "DEUDA_HAB": 1070.4912416107384 }, "geometry": { "type": "Point", "coordinates": [ -0.31125116, 38.84403413 ] } },
{ "type": "Feature", "properties": { "fid": 223, "POBLACION_MUNI": 1051, "SUPERFICIE": 2193.274, "_NOMCORP": "Llíber", "_IMPDEUDVIV": 327.38, "_DEUDA": 327376.57, "_cod_ine": "03085", "DEUDA_HAB": 311.49055185537583 }, "geometry": { "type": "Point", "coordinates": [ 0.006304, 38.74347137 ] } },
{ "type": "Feature", "properties": { "fid": 224, "POBLACION_MUNI": 229, "SUPERFICIE": 977.3401, "_NOMCORP": "Millena", "_IMPDEUDVIV": 15.6, "_DEUDA": 15600.0, "_cod_ine": "03086", "DEUDA_HAB": 68.122270742358083 }, "geometry": { "type": "Point", "coordinates": [ -0.36337482, 38.73087323 ] } },
{ "type": "Feature", "properties": { "fid": 225, "POBLACION_MUNI": 7944, "SUPERFICIE": 7952.2261, "_NOMCORP": "Monforte del Cid", "_IMPDEUDVIV": 7109.77, "_DEUDA": 7109765.4, "_cod_ine": "03088", "DEUDA_HAB": 894.98557401812695 }, "geometry": { "type": "Point", "coordinates": [ -0.72989187, 38.379280970000011 ] } },
{ "type": "Feature", "properties": { "fid": 226, "POBLACION_MUNI": 12175, "SUPERFICIE": 15235.6842, "_NOMCORP": "Monóvar\/Monòver", "_IMPDEUDVIV": 11237.08, "_DEUDA": 11237081.8, "_cod_ine": "03089", "DEUDA_HAB": 922.96359753593435 }, "geometry": { "type": "Point", "coordinates": [ -0.83780533, 38.43721579 ] } },
{ "type": "Feature", "properties": { "fid": 227, "POBLACION_MUNI": 25009, "SUPERFICIE": 4765.3187, "_NOMCORP": "Mutxamel", "_IMPDEUDVIV": 5.56, "_DEUDA": 5558.0, "_cod_ine": "03090", "DEUDA_HAB": 0.22223999360230318 }, "geometry": { "type": "Point", "coordinates": [ -0.44522331, 38.41368396 ] } },
{ "type": "Feature", "properties": { "fid": 228, "POBLACION_MUNI": 493, "SUPERFICIE": 581.336, "_NOMCORP": "Murla", "_IMPDEUDVIV": 0.0, "_DEUDA": 0.0, "_cod_ine": "03091", "DEUDA_HAB": 0.0 }, "geometry": { "type": "Point", "coordinates": [ -0.08306874, 38.75958883 ] } },
{ "type": "Feature", "properties": { "fid": 229, "POBLACION_MUNI": 9328, "SUPERFICIE": 3024.3942, "_NOMCORP": "Muro de Alcoy", "_IMPDEUDVIV": 0.0, "_DEUDA": 0.0, "_cod_ine": "03092", "DEUDA_HAB": 0.0 }, "geometry": { "type": "Point", "coordinates": [ -0.4357044, 38.77998192 ] } },
{ "type": "Feature", "properties": { "fid": 230, "POBLACION_MUNI": 25725, "SUPERFICIE": 7572.424, "_NOMCORP": "Novelda", "_IMPDEUDVIV": 18368.17, "_DEUDA": 18368166.96, "_cod_ine": "03093", "DEUDA_HAB": 714.02009562682224 }, "geometry": { "type": "Point", "coordinates": [ -0.76539782, 38.38606382 ] } },
{ "type": "Feature", "properties": { "fid": 231, "POBLACION_MUNI": 18242, "SUPERFICIE": 2136.1299, "_NOMCORP": "Nucia (la)", "_IMPDEUDVIV": 16353.78, "_DEUDA": 16353783.62, "_cod_ine": "03094", "DEUDA_HAB": 896.4907148338998 }, "geometry": { "type": "Point", "coordinates": [ -0.12289748, 38.61761623 ] } },
{ "type": "Feature", "properties": { "fid": 232, "POBLACION_MUNI": 6815, "SUPERFICIE": 1041.3359, "_NOMCORP": "Ondara", "_IMPDEUDVIV": 539.68, "_DEUDA": 539684.0, "_cod_ine": "03095", "DEUDA_HAB": 79.190608950843725 }, "geometry": { "type": "Point", "coordinates": [ 0.01764367, 38.82692459 ] } },
{ "type": "Feature", "properties": { "fid": 233, "POBLACION_MUNI": 7475, "SUPERFICIE": 4841.0481, "_NOMCORP": "Onil", "_IMPDEUDVIV": 0.0, "_DEUDA": 0.0, "_cod_ine": "03096", "DEUDA_HAB": 0.0 }, "geometry": { "type": "Point", "coordinates": [ -0.6740463, 38.62952092 ] } },
{ "type": "Feature", "properties": { "fid": 234, "POBLACION_MUNI": 2111, "SUPERFICIE": 1772.9579, "_NOMCORP": "Orba", "_IMPDEUDVIV": 894.66, "_DEUDA": 894658.1, "_cod_ine": "03097", "DEUDA_HAB": 423.80772145902415 }, "geometry": { "type": "Point", "coordinates": [ -0.06371253, 38.78039233 ] } },
{ "type": "Feature", "properties": { "fid": 235, "POBLACION_MUNI": 738, "SUPERFICIE": 2406.2327, "_NOMCORP": "Orxeta", "_IMPDEUDVIV": 70.07, "_DEUDA": 70073.0, "_cod_ine": "03098", "DEUDA_HAB": 94.949864498644985 }, "geometry": { "type": "Point", "coordinates": [ -0.2618598, 38.56400384 ] } },
{ "type": "Feature", "properties": { "fid": 236, "POBLACION_MUNI": 76778, "SUPERFICIE": 36543.5923, "_NOMCORP": "Orihuela", "_IMPDEUDVIV": 17609.57, "_DEUDA": 17609570.33, "_cod_ine": "03099", "DEUDA_HAB": 229.3569815572169 }, "geometry": { "type": "Point", "coordinates": [ -0.94664572, 38.08574117 ] } },
{ "type": "Feature", "properties": { "fid": 237, "POBLACION_MUNI": 908, "SUPERFICIE": 1177.04, "_NOMCORP": "Parcent", "_IMPDEUDVIV": 0.0, "_DEUDA": 0.0, "_cod_ine": "03100", "DEUDA_HAB": 0.0 }, "geometry": { "type": "Point", "coordinates": [ -0.06446788, 38.74571695 ] } },
{ "type": "Feature", "properties": { "fid": 238, "POBLACION_MUNI": 7490, "SUPERFICIE": 2958.2241, "_NOMCORP": "Pedreguer", "_IMPDEUDVIV": 196.62, "_DEUDA": 196618.0, "_cod_ine": "03101", "DEUDA_HAB": 26.250734312416554 }, "geometry": { "type": "Point", "coordinates": [ 0.03432468, 38.7935383 ] } },
{ "type": "Feature", "properties": { "fid": 239, "POBLACION_MUNI": 10052, "SUPERFICIE": 5284.6658, "_NOMCORP": "Pego", "_IMPDEUDVIV": 4974.75, "_DEUDA": 4974750.0, "_cod_ine": "03102", "DEUDA_HAB": 494.90151213688819 }, "geometry": { "type": "Point", "coordinates": [ -0.11803172, 38.84201714 ] } },
{ "type": "Feature", "properties": { "fid": 240, "POBLACION_MUNI": 301, "SUPERFICIE": 4992.4963, "_NOMCORP": "Penàguila", "_IMPDEUDVIV": 42.36, "_DEUDA": 42355.03, "_cod_ine": "03103", "DEUDA_HAB": 140.71438538205979 }, "geometry": { "type": "Point", "coordinates": [ -0.35881625, 38.67944195 ] } },
{ "type": "Feature", "properties": { "fid": 241, "POBLACION_MUNI": 34479, "SUPERFICIE": 10409.0751, "_NOMCORP": "Petrer", "_IMPDEUDVIV": 1942.19, "_DEUDA": 1942193.0, "_cod_ine": "03104", "DEUDA_HAB": 56.329736941326601 }, "geometry": { "type": "Point", "coordinates": [ -0.76953712, 38.48480043 ] } },
{ "type": "Feature", "properties": { "fid": 242, "POBLACION_MUNI": 7845, "SUPERFICIE": 12647.9009, "_NOMCORP": "Pinoso\/Pinós (El)", "_IMPDEUDVIV": 2530.42, "_DEUDA": 2530424.09, "_cod_ine": "03105", "DEUDA_HAB": 322.55246526449969 }, "geometry": { "type": "Point", "coordinates": [ -1.04195399, 38.40441177 ] } },
{ "type": "Feature", "properties": { "fid": 243, "POBLACION_MUNI": 713, "SUPERFICIE": 3886.7596, "_NOMCORP": "Planes", "_IMPDEUDVIV": 129.19, "_DEUDA": 129191.79, "_cod_ine": "03106", "DEUDA_HAB": 181.19465638148668 }, "geometry": { "type": "Point", "coordinates": [ -0.34478535, 38.78583429 ] } },
{ "type": "Feature", "properties": { "fid": 244, "POBLACION_MUNI": 4850, "SUPERFICIE": 2255.93, "_NOMCORP": "Polop", "_IMPDEUDVIV": 2554.18, "_DEUDA": 2554183.1, "_cod_ine": "03107", "DEUDA_HAB": 526.63569072164955 }, "geometry": { "type": "Point", "coordinates": [ -0.12654723, 38.62255314 ] } },
{ "type": "Feature", "properties": { "fid": 245, "POBLACION_MUNI": 4418, "SUPERFICIE": 162.2304, "_NOMCORP": "Rafal", "_IMPDEUDVIV": 140.96, "_DEUDA": 140964.76, "_cod_ine": "03109", "DEUDA_HAB": 31.906917157084656 }, "geometry": { "type": "Point", "coordinates": [ -0.84889051, 38.10480713 ] } },
{ "type": "Feature", "properties": { "fid": 246, "POBLACION_MUNI": 644, "SUPERFICIE": 487.7576, "_NOMCORP": "Ràfol d'Almúnia (El)", "_IMPDEUDVIV": 18.45, "_DEUDA": 18450.0, "_cod_ine": "03110", "DEUDA_HAB": 28.649068322981368 }, "geometry": { "type": "Point", "coordinates": [ -0.05280018, 38.82066727 ] } },
{ "type": "Feature", "properties": { "fid": 247, "POBLACION_MUNI": 7797, "SUPERFICIE": 944.7868, "_NOMCORP": "Redován", "_IMPDEUDVIV": 2110.79, "_DEUDA": 2110786.42, "_cod_ine": "03111", "DEUDA_HAB": 270.71776580736179 }, "geometry": { "type": "Point", "coordinates": [ -0.90524865, 38.1140353 ] } },
{ "type": "Feature", "properties": { "fid": 248, "POBLACION_MUNI": 1147, "SUPERFICIE": 7687.2352, "_NOMCORP": "Relleu", "_IMPDEUDVIV": 0.0, "_DEUDA": 0.0, "_cod_ine": "03112", "DEUDA_HAB": 0.0 }, "geometry": { "type": "Point", "coordinates": [ -0.31086389, 38.58727823 ] } },
{ "type": "Feature", "properties": { "fid": 249, "POBLACION_MUNI": 16560, "SUPERFICIE": 2772.86, "_NOMCORP": "Rojales", "_IMPDEUDVIV": 0.0, "_DEUDA": 0.0, "_cod_ine": "03113", "DEUDA_HAB": 0.0 }, "geometry": { "type": "Point", "coordinates": [ -0.7231866, 38.08892037 ] } },
{ "type": "Feature", "properties": { "fid": 250, "POBLACION_MUNI": 2376, "SUPERFICIE": 4329.3741, "_NOMCORP": "Romana (la)", "_IMPDEUDVIV": 0.0, "_DEUDA": 0.0, "_cod_ine": "03114", "DEUDA_HAB": 0.0 }, "geometry": { "type": "Point", "coordinates": [ -0.8960138, 38.36742371 ] } },
{ "type": "Feature", "properties": { "fid": 251, "POBLACION_MUNI": 389, "SUPERFICIE": 561.9059, "_NOMCORP": "Sagra", "_IMPDEUDVIV": 0.0, "_DEUDA": 0.0, "_cod_ine": "03115", "DEUDA_HAB": 0.0 }, "geometry": { "type": "Point", "coordinates": [ -0.06512199, 38.81142807 ] } },
{ "type": "Feature", "properties": { "fid": 252, "POBLACION_MUNI": 1585, "SUPERFICIE": 6171.1716, "_NOMCORP": "Salinas", "_IMPDEUDVIV": 0.0, "_DEUDA": 0.0, "_cod_ine": "03116", "DEUDA_HAB": 0.0 }, "geometry": { "type": "Point", "coordinates": [ -0.91278122, 38.52006995 ] } },
{ "type": "Feature", "properties": { "fid": 253, "POBLACION_MUNI": 648, "SUPERFICIE": 394.1625, "_NOMCORP": "Sanet y Negrals", "_IMPDEUDVIV": 0.0, "_DEUDA": 0.0, "_cod_ine": "03117", "DEUDA_HAB": 0.0 }, "geometry": { "type": "Point", "coordinates": [ -0.03373355, 38.819166330000016 ] } },
{ "type": "Feature", "properties": { "fid": 254, "POBLACION_MUNI": 7943, "SUPERFICIE": 2070.11, "_NOMCORP": "San Fulgencio", "_IMPDEUDVIV": 3544.62, "_DEUDA": 3544617.2, "_cod_ine": "03118", "DEUDA_HAB": 446.25672919551806 }, "geometry": { "type": "Point", "coordinates": [ -0.71879025, 38.11222765 ] } },
{ "type": "Feature", "properties": { "fid": 255, "POBLACION_MUNI": 23518, "SUPERFICIE": 963.8765, "_NOMCORP": "Sant Joan d'Alacant", "_IMPDEUDVIV": 6960.0, "_DEUDA": 6960001.0, "_cod_ine": "03119", "DEUDA_HAB": 295.94357513393999 }, "geometry": { "type": "Point", "coordinates": [ -0.43660694, 38.40151192 ] } },
{ "type": "Feature", "properties": { "fid": 256, "POBLACION_MUNI": 5811, "SUPERFICIE": 5484.62, "_NOMCORP": "San Miguel de Salinas", "_IMPDEUDVIV": 2.72, "_DEUDA": 2715.0, "_cod_ine": "03120", "DEUDA_HAB": 0.46721734641197726 }, "geometry": { "type": "Point", "coordinates": [ -0.78930554, 37.97713811 ] } },
{ "type": "Feature", "properties": { "fid": 257, "POBLACION_MUNI": 31745, "SUPERFICIE": 5816.0985, "_NOMCORP": "Santa Pola", "_IMPDEUDVIV": 3228.95, "_DEUDA": 3228948.94, "_cod_ine": "03121", "DEUDA_HAB": 101.71519735391401 }, "geometry": { "type": "Point", "coordinates": [ -0.55528061, 38.1931155 ] } },
{ "type": "Feature", "properties": { "fid": 258, "POBLACION_MUNI": 57785, "SUPERFICIE": 4055.084, "_NOMCORP": "San Vicente del Raspeig\/Sant Vicent del Raspeig", "_IMPDEUDVIV": 493.92, "_DEUDA": 493921.0, "_cod_ine": "03122", "DEUDA_HAB": 8.5475642467768456 }, "geometry": { "type": "Point", "coordinates": [ -0.52499072, 38.39613348 ] } },
{ "type": "Feature", "properties": { "fid": 259, "POBLACION_MUNI": 9771, "SUPERFICIE": 6348.3656, "_NOMCORP": "Sax", "_IMPDEUDVIV": 534.72, "_DEUDA": 534715.0, "_cod_ine": "03123", "DEUDA_HAB": 54.724695527581616 }, "geometry": { "type": "Point", "coordinates": [ -0.81692328, 38.53849557 ] } },
{ "type": "Feature", "properties": { "fid": 260, "POBLACION_MUNI": 585, "SUPERFICIE": 3872.053, "_NOMCORP": "Sella", "_IMPDEUDVIV": 0.0, "_DEUDA": 0.0, "_cod_ine": "03124", "DEUDA_HAB": 0.0 }, "geometry": { "type": "Point", "coordinates": [ -0.27218087, 38.60812245 ] } },
{ "type": "Feature", "properties": { "fid": 261, "POBLACION_MUNI": 581, "SUPERFICIE": 478.6374, "_NOMCORP": "Senija", "_IMPDEUDVIV": 0.0, "_DEUDA": 0.0, "_cod_ine": "03125", "DEUDA_HAB": 0.0 }, "geometry": { "type": "Point", "coordinates": [ 0.04175328, 38.72826598000001 ] } },
{ "type": "Feature", "properties": { "fid": 262, "POBLACION_MUNI": 627, "SUPERFICIE": 3167.0038, "_NOMCORP": "Tàrbena", "_IMPDEUDVIV": 50.92, "_DEUDA": 50922.0, "_cod_ine": "03127", "DEUDA_HAB": 81.215311004784695 }, "geometry": { "type": "Point", "coordinates": [ -0.1019394, 38.69363337 ] } },
{ "type": "Feature", "properties": { "fid": 263, "POBLACION_MUNI": 10722, "SUPERFICIE": 3225.0, "_NOMCORP": "Teulada", "_IMPDEUDVIV": 0.0, "_DEUDA": 0.0, "_cod_ine": "03128", "DEUDA_HAB": 0.0 }, "geometry": { "type": "Point", "coordinates": [ 0.10231946, 38.729117329999987 ] } },
{ "type": "Feature", "properties": { "fid": 264, "POBLACION_MUNI": 1564, "SUPERFICIE": 7038.2694, "_NOMCORP": "Tibi", "_IMPDEUDVIV": 0.0, "_DEUDA": 0.0, "_cod_ine": "03129", "DEUDA_HAB": 0.0 }, "geometry": { "type": "Point", "coordinates": [ -0.57799241, 38.53125236 ] } },
{ "type": "Feature", "properties": { "fid": 265, "POBLACION_MUNI": 56, "SUPERFICIE": 1597.312, "_NOMCORP": "Tollos", "_IMPDEUDVIV": 0.0, "_DEUDA": 0.0, "_cod_ine": "03130", "DEUDA_HAB": 0.0 }, "geometry": { "type": "Point", "coordinates": [ -0.27417974, 38.75700785 ] } },
{ "type": "Feature", "properties": { "fid": 266, "POBLACION_MUNI": 336, "SUPERFICIE": 536.0, "_NOMCORP": "Tormos", "_IMPDEUDVIV": 0.0, "_DEUDA": 0.0, "_cod_ine": "03131", "DEUDA_HAB": 0.0 }, "geometry": { "type": "Point", "coordinates": [ -0.0723226, 38.80205024 ] } },
{ "type": "Feature", "properties": { "fid": 267, "POBLACION_MUNI": 654, "SUPERFICIE": 3647.9641, "_NOMCORP": "Torremanzanas\/Torre de les Maçanes (la)", "_IMPDEUDVIV": 110.07, "_DEUDA": 110070.45, "_cod_ine": "03132", "DEUDA_HAB": 168.30344036697247 }, "geometry": { "type": "Point", "coordinates": [ -0.41885176, 38.60676744 ] } },
{ "type": "Feature", "properties": { "fid": 268, "POBLACION_MUNI": 82599, "SUPERFICIE": 7176.02, "_NOMCORP": "Torrevieja", "_IMPDEUDVIV": 22147.64, "_DEUDA": 22147636.05, "_cod_ine": "03133", "DEUDA_HAB": 268.13443322558385 }, "geometry": { "type": "Point", "coordinates": [ -0.68302608, 37.97775873 ] } },
{ "type": "Feature", "properties": { "fid": 269, "POBLACION_MUNI": 164, "SUPERFICIE": 2285.0561, "_NOMCORP": "Vall d'Alcalà (la)", "_IMPDEUDVIV": 0.0, "_DEUDA": 0.0, "_cod_ine": "03134", "DEUDA_HAB": 0.0 }, "geometry": { "type": "Point", "coordinates": [ -0.25201489, 38.79456237 ] } },
{ "type": "Feature", "properties": { "fid": 270, "POBLACION_MUNI": 224, "SUPERFICIE": 3242.5432, "_NOMCORP": "Vall d'Ebo (la)", "_IMPDEUDVIV": 0.0, "_DEUDA": 0.0, "_cod_ine": "03135", "DEUDA_HAB": 0.0 }, "geometry": { "type": "Point", "coordinates": [ -0.15985139, 38.80574426 ] } },
{ "type": "Feature", "properties": { "fid": 271, "POBLACION_MUNI": 589, "SUPERFICIE": 5363.2909, "_NOMCORP": "Vall de Gallinera", "_IMPDEUDVIV": 0.0, "_DEUDA": 0.0, "_cod_ine": "03136", "DEUDA_HAB": 0.0 }, "geometry": { "type": "Point", "coordinates": [ -0.22174105, 38.822009229999985 ] } },
{ "type": "Feature", "properties": { "fid": 272, "POBLACION_MUNI": 820, "SUPERFICIE": 2305.4272, "_NOMCORP": "Vall de Laguar (la)", "_IMPDEUDVIV": 0.0, "_DEUDA": 0.0, "_cod_ine": "03137", "DEUDA_HAB": 0.0 }, "geometry": { "type": "Point", "coordinates": [ -0.10944662, 38.77743427 ] } },
{ "type": "Feature", "properties": { "fid": 273, "POBLACION_MUNI": 4520, "SUPERFICIE": 815.895, "_NOMCORP": "Verger (el)", "_IMPDEUDVIV": 2260.33, "_DEUDA": 2260326.74, "_cod_ine": "03138", "DEUDA_HAB": 500.07228761061953 }, "geometry": { "type": "Point", "coordinates": [ 0.01012098, 38.84290338 ] } },
{ "type": "Feature", "properties": { "fid": 274, "POBLACION_MUNI": 33969, "SUPERFICIE": 5924.8127, "_NOMCORP": "Villajoyosa\/Vila Joiosa (la)", "_IMPDEUDVIV": 1942.37, "_DEUDA": 1942374.04, "_cod_ine": "03139", "DEUDA_HAB": 57.180783655686071 }, "geometry": { "type": "Point", "coordinates": [ -0.2319288, 38.50545611 ] } },
{ "type": "Feature", "properties": { "fid": 275, "POBLACION_MUNI": 33983, "SUPERFICIE": 34537.0418, "_NOMCORP": "Villena", "_IMPDEUDVIV": 0.0, "_DEUDA": 0.04, "_cod_ine": "03140", "DEUDA_HAB": 1.1770591177941912e-06 }, "geometry": { "type": "Point", "coordinates": [ -0.86138343, 38.62963811 ] } },
{ "type": "Feature", "properties": { "fid": 276, "POBLACION_MUNI": 2864, "SUPERFICIE": 362.0743, "_NOMCORP": "Poblets (els)", "_IMPDEUDVIV": 0.0, "_DEUDA": 0.0, "_cod_ine": "03901", "DEUDA_HAB": 0.0 }, "geometry": { "type": "Point", "coordinates": [ 0.01680187, 38.85116436 ] } },
{ "type": "Feature", "properties": { "fid": 277, "POBLACION_MUNI": 21418, "SUPERFICIE": 7785.5013, "_NOMCORP": "Pilar de la Horadada", "_IMPDEUDVIV": 1185.01, "_DEUDA": 1185014.0, "_cod_ine": "03902", "DEUDA_HAB": 55.327948454570922 }, "geometry": { "type": "Point", "coordinates": [ -0.79242783, 37.86372554 ] } },
{ "type": "Feature", "properties": { "fid": 278, "POBLACION_MUNI": 4844, "SUPERFICIE": 1499.03, "_NOMCORP": "Montesinos (Los)", "_IMPDEUDVIV": 0.0, "_DEUDA": 0.0, "_cod_ine": "03903", "DEUDA_HAB": 0.0 }, "geometry": { "type": "Point", "coordinates": [ -0.74364774, 38.02749921 ] } },
{ "type": "Feature", "properties": { "fid": 279, "POBLACION_MUNI": 1933, "SUPERFICIE": 1169.884, "_NOMCORP": "San Isidro", "_IMPDEUDVIV": 152.89, "_DEUDA": 152888.0, "_cod_ine": "03904", "DEUDA_HAB": 79.093636833936884 }, "geometry": { "type": "Point", "coordinates": [ -0.83836588, 38.17123285 ] } },
{ "type": "Feature", "properties": { "fid": 280, "POBLACION_MUNI": 1235, "SUPERFICIE": 4524.4244, "_NOMCORP": "Abla", "_IMPDEUDVIV": 244.03, "_DEUDA": 244033.0, "_cod_ine": "04001", "DEUDA_HAB": 197.59757085020243 }, "geometry": { "type": "Point", "coordinates": [ -2.77953953, 37.1412099 ] } },
{ "type": "Feature", "properties": { "fid": 281, "POBLACION_MUNI": 1150, "SUPERFICIE": 8367.747, "_NOMCORP": "Abrucena", "_IMPDEUDVIV": 7.37, "_DEUDA": 7371.0, "_cod_ine": "04002", "DEUDA_HAB": 6.4095652173913047 }, "geometry": { "type": "Point", "coordinates": [ -2.7974669, 37.13218285 ] } },
{ "type": "Feature", "properties": { "fid": 282, "POBLACION_MUNI": 24859, "SUPERFICIE": 8969.45, "_NOMCORP": "Adra", "_IMPDEUDVIV": 14813.66, "_DEUDA": 14813660.68, "_cod_ine": "04003", "DEUDA_HAB": 595.90734462367755 }, "geometry": { "type": "Point", "coordinates": [ -3.02330257, 36.74868325 ] } },
{ "type": "Feature", "properties": { "fid": 283, "POBLACION_MUNI": 753, "SUPERFICIE": 3491.3, "_NOMCORP": "Albánchez", "_IMPDEUDVIV": 45.19, "_DEUDA": 45193.0, "_cod_ine": "04004", "DEUDA_HAB": 60.017264276228417 }, "geometry": { "type": "Point", "coordinates": [ -2.18135854, 37.28686167 ] } },
{ "type": "Feature", "properties": { "fid": 284, "POBLACION_MUNI": 621, "SUPERFICIE": 6973.4477, "_NOMCORP": "Alboloduy", "_IMPDEUDVIV": 0.0, "_DEUDA": 0.0, "_cod_ine": "04005", "DEUDA_HAB": 0.0 }, "geometry": { "type": "Point", "coordinates": [ -2.62168571, 37.03339629 ] } },
{ "type": "Feature", "properties": { "fid": 285, "POBLACION_MUNI": 11696, "SUPERFICIE": 16844.82, "_NOMCORP": "Albox", "_IMPDEUDVIV": 20075.88, "_DEUDA": 20075882.37, "_cod_ine": "04006", "DEUDA_HAB": 1716.4742108413134 }, "geometry": { "type": "Point", "coordinates": [ -2.14799133, 37.38850758000001 ] } },
{ "type": "Feature", "properties": { "fid": 286, "POBLACION_MUNI": 814, "SUPERFICIE": 6751.6723, "_NOMCORP": "Alcolea", "_IMPDEUDVIV": 30.79, "_DEUDA": 30785.8, "_cod_ine": "04007", "DEUDA_HAB": 37.820393120393121 }, "geometry": { "type": "Point", "coordinates": [ -2.96066637, 36.97361957 ] } },
{ "type": "Feature", "properties": { "fid": 287, "POBLACION_MUNI": 528, "SUPERFICIE": 9390.6745, "_NOMCORP": "Alcóntar", "_IMPDEUDVIV": 118.25, "_DEUDA": 118249.09, "_cod_ine": "04008", "DEUDA_HAB": 223.95660984848485 }, "geometry": { "type": "Point", "coordinates": [ -2.59756879, 37.33611796 ] } },
{ "type": "Feature", "properties": { "fid": 288, "POBLACION_MUNI": 135, "SUPERFICIE": 1552.04, "_NOMCORP": "Alcudia de Monteagud", "_IMPDEUDVIV": 18.96, "_DEUDA": 18964.83, "_cod_ine": "04009", "DEUDA_HAB": 140.48022222222224 }, "geometry": { "type": "Point", "coordinates": [ -2.26678969, 37.23587193 ] } },
{ "type": "Feature", "properties": { "fid": 289, "POBLACION_MUNI": 648, "SUPERFICIE": 1639.4593, "_NOMCORP": "Alhabia", "_IMPDEUDVIV": 1989.79, "_DEUDA": 1989792.0, "_cod_ine": "04010", "DEUDA_HAB": 3070.6666666666665 }, "geometry": { "type": "Point", "coordinates": [ -2.58702093, 36.98991242 ] } },
{ "type": "Feature", "properties": { "fid": 290, "POBLACION_MUNI": 3615, "SUPERFICIE": 2624.375, "_NOMCORP": "Alhama de Almería", "_IMPDEUDVIV": 1992.14, "_DEUDA": 1992136.89, "_cod_ine": "04011", "DEUDA_HAB": 551.07521161825719 }, "geometry": { "type": "Point", "coordinates": [ -2.56977648, 36.95718281 ] } },
{ "type": "Feature", "properties": { "fid": 291, "POBLACION_MUNI": 212, "SUPERFICIE": 587.3104, "_NOMCORP": "Alicún", "_IMPDEUDVIV": 154.17, "_DEUDA": 154171.02, "_cod_ine": "04012", "DEUDA_HAB": 727.22179245283019 }, "geometry": { "type": "Point", "coordinates": [ -2.60215517, 36.96671607 ] } },
{ "type": "Feature", "properties": { "fid": 292, "POBLACION_MUNI": 196851, "SUPERFICIE": 29572.44, "_NOMCORP": "Almería", "_IMPDEUDVIV": 90536.34, "_DEUDA": 90536343.72, "_cod_ine": "04013", "DEUDA_HAB": 459.92320953411462 }, "geometry": { "type": "Point", "coordinates": [ -2.46413188, 36.83892362 ] } },
{ "type": "Feature", "properties": { "fid": 293, "POBLACION_MUNI": 176, "SUPERFICIE": 3082.5201, "_NOMCORP": "Almócita", "_IMPDEUDVIV": 5.58, "_DEUDA": 5580.0, "_cod_ine": "04014", "DEUDA_HAB": 31.704545454545453 }, "geometry": { "type": "Point", "coordinates": [ -2.78984397, 37.00274251 ] } },
{ "type": "Feature", "properties": { "fid": 294, "POBLACION_MUNI": 133, "SUPERFICIE": 2010.2293, "_NOMCORP": "Alsodux", "_IMPDEUDVIV": 0.0, "_DEUDA": 0.0, "_cod_ine": "04015", "DEUDA_HAB": 0.0 }, "geometry": { "type": "Point", "coordinates": [ -2.59464638, 37.00135999 ] } },
{ "type": "Feature", "properties": { "fid": 295, "POBLACION_MUNI": 3169, "SUPERFICIE": 9973.47, "_NOMCORP": "Antas", "_IMPDEUDVIV": 1190.43, "_DEUDA": 1190426.64, "_cod_ine": "04016", "DEUDA_HAB": 375.64740927737455 }, "geometry": { "type": "Point", "coordinates": [ -1.91715315, 37.24459175 ] } },
{ "type": "Feature", "properties": { "fid": 296, "POBLACION_MUNI": 4586, "SUPERFICIE": 6614.36, "_NOMCORP": "Arboleas", "_IMPDEUDVIV": 328.64, "_DEUDA": 328635.0, "_cod_ine": "04017", "DEUDA_HAB": 71.660488443087658 }, "geometry": { "type": "Point", "coordinates": [ -2.0754646, 37.35116011 ] } },
{ "type": "Feature", "properties": { "fid": 297, "POBLACION_MUNI": 321, "SUPERFICIE": 772.17, "_NOMCORP": "Armuña de Almanzora", "_IMPDEUDVIV": 0.0, "_DEUDA": 0.0, "_cod_ine": "04018", "DEUDA_HAB": 0.0 }, "geometry": { "type": "Point", "coordinates": [ -2.41135555, 37.34982202 ] } },
{ "type": "Feature", "properties": { "fid": 298, "POBLACION_MUNI": 232, "SUPERFICIE": 9452.09, "_NOMCORP": "Bacares", "_IMPDEUDVIV": 76.3, "_DEUDA": 76295.41, "_cod_ine": "04019", "DEUDA_HAB": 328.85952586206901 }, "geometry": { "type": "Point", "coordinates": [ -2.45318749, 37.26120059 ] } },
{ "type": "Feature", "properties": { "fid": 299, "POBLACION_MUNI": 284, "SUPERFICIE": 3802.3734, "_NOMCORP": "Bayárcal", "_IMPDEUDVIV": 0.0, "_DEUDA": 0.0, "_cod_ine": "04020", "DEUDA_HAB": 0.0 }, "geometry": { "type": "Point", "coordinates": [ -2.99562617, 37.03018267 ] } },
{ "type": "Feature", "properties": { "fid": 300, "POBLACION_MUNI": 206, "SUPERFICIE": 2670.49, "_NOMCORP": "Bayarque", "_IMPDEUDVIV": 0.0, "_DEUDA": 0.0, "_cod_ine": "04021", "DEUDA_HAB": 0.0 }, "geometry": { "type": "Point", "coordinates": [ -2.43594364, 37.330688640000012 ] } },
{ "type": "Feature", "properties": { "fid": 301, "POBLACION_MUNI": 927, "SUPERFICIE": 4672.13, "_NOMCORP": "Bédar", "_IMPDEUDVIV": 0.0, "_DEUDA": 0.0, "_cod_ine": "04022", "DEUDA_HAB": 0.0 }, "geometry": { "type": "Point", "coordinates": [ -1.98182232, 37.19030833 ] } },
{ "type": "Feature", "properties": { "fid": 302, "POBLACION_MUNI": 117, "SUPERFICIE": 3883.4832, "_NOMCORP": "Beires", "_IMPDEUDVIV": 0.15, "_DEUDA": 149.0, "_cod_ine": "04023", "DEUDA_HAB": 1.2735042735042734 }, "geometry": { "type": "Point", "coordinates": [ -2.79152516, 37.01264326 ] } },
{ "type": "Feature", "properties": { "fid": 303, "POBLACION_MUNI": 4357, "SUPERFICIE": 1661.5387, "_NOMCORP": "Benahadux", "_IMPDEUDVIV": 0.0, "_DEUDA": 0.0, "_cod_ine": "04024", "DEUDA_HAB": 0.0 }, "geometry": { "type": "Point", "coordinates": [ -2.455766, 36.925792 ] } },
{ "type": "Feature", "properties": { "fid": 304, "POBLACION_MUNI": 68, "SUPERFICIE": 639.68, "_NOMCORP": "Benitagla", "_IMPDEUDVIV": 0.0, "_DEUDA": 0.0, "_cod_ine": "04026", "DEUDA_HAB": 0.0 }, "geometry": { "type": "Point", "coordinates": [ -2.23834784, 37.231239409999986 ] } },
{ "type": "Feature", "properties": { "fid": 305, "POBLACION_MUNI": 248, "SUPERFICIE": 3196.88, "_NOMCORP": "Benizalón", "_IMPDEUDVIV": 15.85, "_DEUDA": 15849.64, "_cod_ine": "04027", "DEUDA_HAB": 63.909838709677416 }, "geometry": { "type": "Point", "coordinates": [ -2.24067815, 37.21246044 ] } },
{ "type": "Feature", "properties": { "fid": 306, "POBLACION_MUNI": 243, "SUPERFICIE": 1134.3564, "_NOMCORP": "Bentarique", "_IMPDEUDVIV": 139.23, "_DEUDA": 139231.89, "_cod_ine": "04028", "DEUDA_HAB": 572.97074074074078 }, "geometry": { "type": "Point", "coordinates": [ -2.61889692, 36.98631438 ] } },
{ "type": "Feature", "properties": { "fid": 307, "POBLACION_MUNI": 12381, "SUPERFICIE": 18581.24, "_NOMCORP": "Berja", "_IMPDEUDVIV": 4877.29, "_DEUDA": 4877293.22, "_cod_ine": "04029", "DEUDA_HAB": 393.93370648574427 }, "geometry": { "type": "Point", "coordinates": [ -2.94948207, 36.84732147 ] } },
{ "type": "Feature", "properties": { "fid": 308, "POBLACION_MUNI": 1202, "SUPERFICIE": 6692.6563, "_NOMCORP": "Canjáyar", "_IMPDEUDVIV": 48.27, "_DEUDA": 48271.0, "_cod_ine": "04030", "DEUDA_HAB": 40.158901830282865 }, "geometry": { "type": "Point", "coordinates": [ -2.73944378, 37.01006973 ] } },
{ "type": "Feature", "properties": { "fid": 309, "POBLACION_MUNI": 3228, "SUPERFICIE": 7895.32, "_NOMCORP": "Cantoria", "_IMPDEUDVIV": 786.51, "_DEUDA": 786514.0, "_cod_ine": "04031", "DEUDA_HAB": 243.65365551425032 }, "geometry": { "type": "Point", "coordinates": [ -2.19324978, 37.35219371 ] } },
{ "type": "Feature", "properties": { "fid": 310, "POBLACION_MUNI": 7757, "SUPERFICIE": 9546.4247, "_NOMCORP": "Carboneras", "_IMPDEUDVIV": 3036.51, "_DEUDA": 3036505.0, "_cod_ine": "04032", "DEUDA_HAB": 391.45352584762151 }, "geometry": { "type": "Point", "coordinates": [ -1.89349648, 36.99742391 ] } },
{ "type": "Feature", "properties": { "fid": 311, "POBLACION_MUNI": 121, "SUPERFICIE": 2923.5664, "_NOMCORP": "Castro de Filabres", "_IMPDEUDVIV": 0.0, "_DEUDA": 0.0, "_cod_ine": "04033", "DEUDA_HAB": 0.0 }, "geometry": { "type": "Point", "coordinates": [ -2.43912676, 37.18484936 ] } },
{ "type": "Feature", "properties": { "fid": 312, "POBLACION_MUNI": 143, "SUPERFICIE": 3199.11, "_NOMCORP": "Cóbdar", "_IMPDEUDVIV": 0.0, "_DEUDA": 0.0, "_cod_ine": "04034", "DEUDA_HAB": 0.0 }, "geometry": { "type": "Point", "coordinates": [ -2.21001778, 37.26157453 ] } },
{ "type": "Feature", "properties": { "fid": 313, "POBLACION_MUNI": 13776, "SUPERFICIE": 26398.49, "_NOMCORP": "Cuevas del Almanzora", "_IMPDEUDVIV": 3016.72, "_DEUDA": 3016721.92, "_cod_ine": "04035", "DEUDA_HAB": 218.98387921022066 }, "geometry": { "type": "Point", "coordinates": [ -1.87991806, 37.2967313 ] } },
{ "type": "Feature", "properties": { "fid": 314, "POBLACION_MUNI": 283, "SUPERFICIE": 1355.46, "_NOMCORP": "Chercos", "_IMPDEUDVIV": 0.0, "_DEUDA": 0.0, "_cod_ine": "04036", "DEUDA_HAB": 0.0 }, "geometry": { "type": "Point", "coordinates": [ -2.26646383, 37.25435736 ] } },
{ "type": "Feature", "properties": { "fid": 315, "POBLACION_MUNI": 1525, "SUPERFICIE": 19647.14, "_NOMCORP": "Chirivel", "_IMPDEUDVIV": 1021.42, "_DEUDA": 1021417.95, "_cod_ine": "04037", "DEUDA_HAB": 669.78226229508198 }, "geometry": { "type": "Point", "coordinates": [ -2.26658541, 37.59512473 ] } },
{ "type": "Feature", "properties": { "fid": 316, "POBLACION_MUNI": 4031, "SUPERFICIE": 14143.38, "_NOMCORP": "Dalías", "_IMPDEUDVIV": 2156.79, "_DEUDA": 2156792.06, "_cod_ine": "04038", "DEUDA_HAB": 535.05136690647487 }, "geometry": { "type": "Point", "coordinates": [ -2.87111055, 36.82078429 ] } },
{ "type": "Feature", "properties": { "fid": 317, "POBLACION_MUNI": 418, "SUPERFICIE": 6684.4603, "_NOMCORP": "Enix", "_IMPDEUDVIV": 50.98, "_DEUDA": 50981.96, "_cod_ine": "04041", "DEUDA_HAB": 121.96641148325358 }, "geometry": { "type": "Point", "coordinates": [ -2.60175846, 36.876939299999989 ] } },
{ "type": "Feature", "properties": { "fid": 318, "POBLACION_MUNI": 642, "SUPERFICIE": 8126.2027, "_NOMCORP": "Felix", "_IMPDEUDVIV": 102.7, "_DEUDA": 102696.0, "_cod_ine": "04043", "DEUDA_HAB": 159.96261682242991 }, "geometry": { "type": "Point", "coordinates": [ -2.65861622, 36.86898567 ] } },
{ "type": "Feature", "properties": { "fid": 319, "POBLACION_MUNI": 1992, "SUPERFICIE": 2307.11, "_NOMCORP": "Fines", "_IMPDEUDVIV": 1559.63, "_DEUDA": 1559629.24, "_cod_ine": "04044", "DEUDA_HAB": 782.94640562248992 }, "geometry": { "type": "Point", "coordinates": [ -2.263629, 37.35887254 ] } },
{ "type": "Feature", "properties": { "fid": 320, "POBLACION_MUNI": 1992, "SUPERFICIE": 13395.9718, "_NOMCORP": "Fiñana", "_IMPDEUDVIV": 76.45, "_DEUDA": 76450.0, "_cod_ine": "04045", "DEUDA_HAB": 38.378514056224901 }, "geometry": { "type": "Point", "coordinates": [ -2.84178852, 37.17135438 ] } },
{ "type": "Feature", "properties": { "fid": 321, "POBLACION_MUNI": 975, "SUPERFICIE": 9115.8777, "_NOMCORP": "Fondón", "_IMPDEUDVIV": 41.12, "_DEUDA": 41117.07, "_cod_ine": "04046", "DEUDA_HAB": 42.171353846153849 }, "geometry": { "type": "Point", "coordinates": [ -2.85918906, 36.97993167 ] } },
{ "type": "Feature", "properties": { "fid": 322, "POBLACION_MUNI": 3027, "SUPERFICIE": 8767.0204, "_NOMCORP": "Gádor", "_IMPDEUDVIV": 802.48, "_DEUDA": 802484.0, "_cod_ine": "04047", "DEUDA_HAB": 265.10868847043275 }, "geometry": { "type": "Point", "coordinates": [ -2.49279322, 36.9530923 ] } },
{ "type": "Feature", "properties": { "fid": 323, "POBLACION_MUNI": 2803, "SUPERFICIE": 3489.79, "_NOMCORP": "Gallardos (Los)", "_IMPDEUDVIV": 80.14, "_DEUDA": 80136.0, "_cod_ine": "04048", "DEUDA_HAB": 28.589368533713877 }, "geometry": { "type": "Point", "coordinates": [ -1.9417002, 37.17027055 ] } },
{ "type": "Feature", "properties": { "fid": 324, "POBLACION_MUNI": 8838, "SUPERFICIE": 776.6, "_NOMCORP": "Garrucha", "_IMPDEUDVIV": 3745.47, "_DEUDA": 3745465.55, "_cod_ine": "04049", "DEUDA_HAB": 423.7910782982575 }, "geometry": { "type": "Point", "coordinates": [ -1.82347743, 37.179719399999989 ] } },
{ "type": "Feature", "properties": { "fid": 325, "POBLACION_MUNI": 1031, "SUPERFICIE": 22948.7704, "_NOMCORP": "Gérgal", "_IMPDEUDVIV": 417.78, "_DEUDA": 417779.0, "_cod_ine": "04050", "DEUDA_HAB": 405.21726479146457 }, "geometry": { "type": "Point", "coordinates": [ -2.53905331, 37.12083904 ] } },
{ "type": "Feature", "properties": { "fid": 326, "POBLACION_MUNI": 486, "SUPERFICIE": 1901.8613, "_NOMCORP": "Huécija", "_IMPDEUDVIV": 122.49, "_DEUDA": 122492.51, "_cod_ine": "04051", "DEUDA_HAB": 252.04220164609052 }, "geometry": { "type": "Point", "coordinates": [ -2.60994487, 36.96802203 ] } },
{ "type": "Feature", "properties": { "fid": 327, "POBLACION_MUNI": 17418, "SUPERFICIE": 2092.75, "_NOMCORP": "Huércal de Almería", "_IMPDEUDVIV": 141.98, "_DEUDA": 141980.0, "_cod_ine": "04052", "DEUDA_HAB": 8.1513376966356645 }, "geometry": { "type": "Point", "coordinates": [ -2.43599715, 36.88406432 ] } },
{ "type": "Feature", "properties": { "fid": 328, "POBLACION_MUNI": 18816, "SUPERFICIE": 31821.97, "_NOMCORP": "Huércal-Overa", "_IMPDEUDVIV": 8814.6, "_DEUDA": 8814596.89, "_cod_ine": "04053", "DEUDA_HAB": 468.46284491921773 }, "geometry": { "type": "Point", "coordinates": [ -1.943031, 37.38937619 ] } },
{ "type": "Feature", "properties": { "fid": 329, "POBLACION_MUNI": 390, "SUPERFICIE": 1918.8146, "_NOMCORP": "Illar", "_IMPDEUDVIV": 146.17, "_DEUDA": 146173.89, "_cod_ine": "04054", "DEUDA_HAB": 374.8048461538462 }, "geometry": { "type": "Point", "coordinates": [ -2.63886001, 36.9849617 ] } },
{ "type": "Feature", "properties": { "fid": 330, "POBLACION_MUNI": 429, "SUPERFICIE": 3348.4996, "_NOMCORP": "Instinción", "_IMPDEUDVIV": 0.0, "_DEUDA": 0.0, "_cod_ine": "04055", "DEUDA_HAB": 0.0 }, "geometry": { "type": "Point", "coordinates": [ -2.65979091, 36.99319077 ] } },
{ "type": "Feature", "properties": { "fid": 331, "POBLACION_MUNI": 169, "SUPERFICIE": 2171.34, "_NOMCORP": "Laroya", "_IMPDEUDVIV": 18.0, "_DEUDA": 18000.0, "_cod_ine": "04056", "DEUDA_HAB": 106.50887573964496 }, "geometry": { "type": "Point", "coordinates": [ -2.3320851, 37.29604768 ] } },
{ "type": "Feature", "properties": { "fid": 332, "POBLACION_MUNI": 1538, "SUPERFICIE": 9280.8708, "_NOMCORP": "Láujar de Andarax", "_IMPDEUDVIV": 0.0, "_DEUDA": 0.0, "_cod_ine": "04057", "DEUDA_HAB": 0.0 }, "geometry": { "type": "Point", "coordinates": [ -2.88903331, 36.99456726 ] } },
{ "type": "Feature", "properties": { "fid": 333, "POBLACION_MUNI": 390, "SUPERFICIE": 2823.86, "_NOMCORP": "Líjar", "_IMPDEUDVIV": 0.0, "_DEUDA": 0.0, "_cod_ine": "04058", "DEUDA_HAB": 0.0 }, "geometry": { "type": "Point", "coordinates": [ -2.21999131, 37.29501881 ] } },
{ "type": "Feature", "properties": { "fid": 334, "POBLACION_MUNI": 1431, "SUPERFICIE": 13813.87, "_NOMCORP": "Lubrín", "_IMPDEUDVIV": 510.89, "_DEUDA": 510890.59, "_cod_ine": "04059", "DEUDA_HAB": 357.01648497554157 }, "geometry": { "type": "Point", "coordinates": [ -2.06592032, 37.21648353 ] } },
{ "type": "Feature", "properties": { "fid": 335, "POBLACION_MUNI": 546, "SUPERFICIE": 12320.2811, "_NOMCORP": "Lucainena de las Torres", "_IMPDEUDVIV": 48.99, "_DEUDA": 48986.0, "_cod_ine": "04060", "DEUDA_HAB": 89.717948717948715 }, "geometry": { "type": "Point", "coordinates": [ -2.2011865, 37.0402677 ] } },
{ "type": "Feature", "properties": { "fid": 336, "POBLACION_MUNI": 766, "SUPERFICIE": 10065.41, "_NOMCORP": "Lúcar", "_IMPDEUDVIV": 292.05, "_DEUDA": 292053.26, "_cod_ine": "04061", "DEUDA_HAB": 381.27057441253265 }, "geometry": { "type": "Point", "coordinates": [ -2.42494356, 37.40081642 ] } },
{ "type": "Feature", "properties": { "fid": 337, "POBLACION_MUNI": 5539, "SUPERFICIE": 4380.1, "_NOMCORP": "Macael", "_IMPDEUDVIV": 13071.25, "_DEUDA": 13071251.34, "_cod_ine": "04062", "DEUDA_HAB": 2359.8576168983573 }, "geometry": { "type": "Point", "coordinates": [ -2.30432229, 37.33233031 ] } },